$GNRMC,144502.00,A,4712.82000,N,01933.15068,E,0.903,,280424,,,A*62
$GNVTG,,T,,M,0.903,N,1.672,K,A*35
$GNGGA,144502.00,4712.82000,N,01933.15068,E,1,05,2.13,134.1,M,38.7,M,,*42
$GNGSA,A,3,08,21,32,02,,,,,,,,,3.72,2.13,3.04*15
$GNGSA,A,3,67,,,,,,,,,,,,3.72,2.13,3.04*1C
$GPGSV,4,1,13,02,31,287,34,08,72,255,28,10,58,057,32,14,08,329,*7B
$GPGSV,4,2,13,16,07,196,25,21,48,291,29,23,22,052,21,24,00,043,*7E
$GPGSV,4,3,13,27,55,164,32,32,38,121,27,36,35,164,29,40,26,136,29*72
$GPGSV,4,4,13,49,34,199,29*4B
$GLGSV,3,1,11,66,10,025,,67,54,059,28,68,52,158,,69,09,188,*65
$GLGSV,3,2,11,73,09,257,23,74,19,298,,75,09,350,,81,00,113,*67
$GLGSV,3,3,11,82,43,096,25,83,70,014,,84,19,304,*5A
$GNGLL,4712.82000,N,01933.15068,E,144502.00,A,A*79
$GNRMC,144503.00,A,4712.81898,N,01933.14857,E,2.212,317.75,280424,,,A*7C
$GNVTG,317.75,T,,M,2.212,N,4.097,K,A*2D
$GNGGA,144503.00,4712.81898,N,01933.14857,E,1,07,1.42,131.4,M,38.7,M,,*49
$GNGSA,A,3,08,10,27,21,32,02,,,,,,,3.23,1.42,2.90*1E
$GNGSA,A,3,67,,,,,,,,,,,,3.23,1.42,2.90*13
$GPGSV,4,1,13,02,31,287,34,08,72,255,29,10,58,057,32,14,08,329,*7A
$GPGSV,4,2,13,16,07,196,23,21,48,291,29,23,22,052,20,24,00,043,24*7F
$GPGSV,4,3,13,27,55,164,32,32,38,121,26,36,35,164,29,40,26,136,29*73
$GPGSV,4,4,13,49,34,199,29*4B
$GLGSV,3,1,11,66,10,025,,67,54,059,27,68,52,158,,69,09,188,*6A
$GLGSV,3,2,11,73,09,257,20,74,19,298,,75,09,350,,81,00,113,*64
$GLGSV,3,3,11,82,43,096,23,83,70,014,,84,19,304,*5C
$GNGLL,4712.81898,N,01933.14857,E,144503.00,A,A*77
$GNRMC,144504.00,A,4712.82021,N,01933.14870,E,0.251,,280424,,,A*6B
$GNVTG,,T,,M,0.251,N,0.465,K,A*3C
$GNGGA,144504.00,4712.82021,N,01933.14870,E,1,07,1.42,129.4,M,38.7,M,,*4B
$GNGSA,A,3,08,10,27,21,32,02,,,,,,,3.23,1.42,2.90*1E
$GNGSA,A,3,67,,,,,,,,,,,,3.23,1.42,2.90*13
$GPGSV,4,1,13,02,31,287,34,08,72,255,28,10,58,057,31,14,08,329,23*79
$GPGSV,4,2,13,16,07,196,,21,48,291,28,23,22,052,19,24,00,043,22*73
$GPGSV,4,3,13,27,55,164,36,32,38,121,26,36,35,164,29,40,26,136,29*77
$GPGSV,4,4,13,49,34,199,29*4B
$GLGSV,3,1,11,66,10,025,28,67,54,059,27,68,52,158,,69,09,188,*60
$GLGSV,3,2,11,73,09,257,19,74,19,298,,75,09,350,,81,00,113,*6E
$GLGSV,3,3,11,82,43,096,,83,70,014,,84,19,304,*5D
$GNGLL,4712.82021,N,01933.14870,E,144504.00,A,A*7C
$GNRMC,144505.00,A,4712.82024,N,01933.14849,E,0.250,,280424,,,A*64
$GNVTG,,T,,M,0.250,N,0.464,K,A*3C
$GNGGA,144505.00,4712.82024,N,01933.14849,E,1,07,1.42,128.4,M,38.7,M,,*44
$GNGSA,A,3,08,10,27,21,32,02,,,,,,,3.23,1.42,2.90*1E
$GNGSA,A,3,67,,,,,,,,,,,,3.23,1.42,2.90*13
$GPGSV,4,1,13,02,31,287,34,08,72,255,27,10,58,057,33,14,08,329,*75
$GPGSV,4,2,13,16,07,196,,21,48,291,28,23,22,052,20,24,00,043,20*7B
$GPGSV,4,3,13,27,55,164,32,32,38,121,27,36,35,164,29,40,26,136,29*72
$GPGSV,4,4,13,49,34,199,29*4B
$GLGSV,3,1,11,66,10,025,,67,54,059,28,68,52,158,,69,09,188,*65
$GLGSV,3,2,11,73,09,257,19,74,19,298,,75,09,350,,81,00,113,*6E
$GLGSV,3,3,11,82,43,096,22,83,70,014,,84,19,304,*5D
$GNGLL,4712.82024,N,01933.14849,E,144505.00,A,A*72
$GNRMC,144506.00,A,4712.82175,N,01933.14989,E,0.441,,280424,,,A*69
$GNVTG,,T,,M,0.441,N,0.816,K,A*33
$GNGGA,144506.00,4712.82175,N,01933.14989,E,1,07,1.42,128.2,M,38.7,M,,*49
$GNGSA,A,3,08,10,27,21,32,02,,,,,,,3.23,1.42,2.90*1E
$GNGSA,A,3,67,,,,,,,,,,,,3.23,1.42,2.90*13
$GPGSV,4,1,13,02,31,287,34,08,72,255,25,10,58,057,36,14,08,329,*72
$GPGSV,4,2,13,16,07,196,23,21,48,291,27,23,22,052,19,24,00,043,*7D
$GPGSV,4,3,13,27,55,164,25,32,38,121,32,36,35,164,29,40,26,136,29*70
$GPGSV,4,4,13,49,34,199,29*4B
$GLGSV,3,1,11,66,10,025,,67,54,059,28,68,52,158,,69,09,188,*65
$GLGSV,3,2,11,73,09,257,17,74,19,298,,75,09,350,,81,00,113,*60
$GLGSV,3,3,11,82,43,096,,83,70,014,,84,19,304,*5D
$GNGLL,4712.82175,N,01933.14989,E,144506.00,A,A*79
$GNRMC,144507.00,A,4712.82138,N,01933.15021,E,0.224,,280424,,,A*6E
$GNVTG,,T,,M,0.224,N,0.414,K,A*38
$GNGGA,144507.00,4712.82138,N,01933.15021,E,1,05,3.36,128.3,M,38.7,M,,*49
$GNGSA,A,3,10,21,32,02,,,,,,,,,7.69,3.36,6.91*1D
$GNGSA,A,3,67,,,,,,,,,,,,7.69,3.36,6.91*1D
$GPGSV,3,1,12,02,31,287,34,08,72,255,23,10,58,057,37,14,08,329,20*71
$GPGSV,3,2,12,16,07,196,,21,48,291,25,23,22,052,21,24,00,043,*73
$GPGSV,3,3,12,27,55,164,19,32,38,121,32,36,35,164,29,49,34,199,29*76
$GLGSV,3,1,11,66,10,025,,67,54,059,28,68,52,158,,69,09,188,*65
$GLGSV,3,2,11,73,09,257,15,74,19,298,,75,09,350,,81,00,113,*62
$GLGSV,3,3,11,82,43,096,,83,70,014,,84,19,304,*5D
$GNGLL,4712.82138,N,01933.15021,E,144507.00,A,A*7B
$GNRMC,144508.00,A,4712.82117,N,01933.15048,E,0.694,,280424,,,A*6C
$GNVTG,,T,,M,0.694,N,1.285,K,A*38
$GNGGA,144508.00,4712.82117,N,01933.15048,E,1,05,3.36,127.6,M,38.7,M,,*4E
$GNGSA,A,3,10,21,32,02,,,,,,,,,7.69,3.36,6.91*1D
$GNGSA,A,3,67,,,,,,,,,,,,7.69,3.36,6.91*1D
$GPGSV,3,1,12,02,31,287,33,08,72,255,,10,58,057,37,14,08,329,20*77
$GPGSV,3,2,12,16,07,196,,21,48,291,24,23,22,052,,24,00,043,22*71
$GPGSV,3,3,12,27,55,164,19,32,38,121,32,33,26,224,31,36,35,164,29*74
$GLGSV,3,1,11,66,10,025,,67,54,059,28,68,52,158,,69,09,188,*65
$GLGSV,3,2,11,73,09,257,14,74,19,298,,75,09,350,,81,00,113,*63
$GLGSV,3,3,11,82,43,096,,83,70,014,,84,19,304,*5D
$GNGLL,4712.82117,N,01933.15048,E,144508.00,A,A*76
$GNRMC,144509.00,A,4712.82149,N,01933.15101,E,1.486,281.39,280424,,,A*75
$GNVTG,281.39,T,,M,1.486,N,2.753,K,A*2A
$GNGGA,144509.00,4712.82149,N,01933.15101,E,1,05,3.36,128.0,M,38.7,M,,*41
$GNGSA,A,3,10,21,32,02,,,,,,,,,7.69,3.36,6.91*1D
$GNGSA,A,3,67,,,,,,,,,,,,7.69,3.36,6.91*1D
$GPGSV,3,1,12,02,31,287,30,08,72,255,26,10,58,057,39,14,08,329,18*75
$GPGSV,3,2,12,16,07,196,,21,48,291,23,23,22,052,22,24,00,043,20*74
$GPGSV,3,3,12,27,55,164,27,32,38,121,35,33,26,224,29,36,35,164,28*76
$GLGSV,3,1,11,66,10,025,,67,54,059,33,68,52,158,,69,09,188,*6F
$GLGSV,3,2,11,73,09,257,15,74,19,298,,75,09,350,,81,00,113,*62
$GLGSV,3,3,11,82,43,096,,83,70,014,,84,19,304,*5D
$GNGLL,4712.82149,N,01933.15101,E,144509.00,A,A*70
$GNRMC,144510.00,A,4712.82172,N,01933.15162,E,2.736,223.85,280424,,,A*74
$GNVTG,223.85,T,,M,2.736,N,5.067,K,A*29
$GNGGA,144510.00,4712.82172,N,01933.15162,E,1,06,1.88,131.5,M,38.7,M,,*4D
$GNGSA,A,3,08,10,21,32,02,,,,,,,,3.54,1.88,3.00*15
$GNGSA,A,3,67,,,,,,,,,,,,3.54,1.88,3.00*1D
$GPGSV,3,1,12,02,31,287,29,08,72,255,27,10,58,057,41,14,08,329,17*7C
$GPGSV,3,2,12,16,07,196,,21,48,291,26,23,22,052,21,24,00,043,18*79
$GPGSV,3,3,12,27,55,164,25,32,38,121,35,33,26,224,28,36,35,164,28*75
$GLGSV,3,1,11,66,10,025,,67,54,059,34,68,52,158,,69,09,188,*68
$GLGSV,3,2,11,73,09,257,15,74,19,298,,75,09,350,,81,00,113,*62
$GLGSV,3,3,11,82,43,096,,83,70,014,,84,19,304,*5D
$GNGLL,4712.82172,N,01933.15162,E,144510.00,A,A*75
$GNRMC,144511.00,A,4712.82362,N,01933.15260,E,0.686,,280424,,,A*6F
$GNVTG,,T,,M,0.686,N,1.271,K,A*30
$GNGGA,144511.00,4712.82362,N,01933.15260,E,1,07,1.42,133.0,M,38.7,M,,*4E
$GNGSA,A,3,08,10,27,21,32,02,,,,,,,3.23,1.42,2.90*1E
$GNGSA,A,3,67,,,,,,,,,,,,3.23,1.42,2.90*13
$GPGSV,3,1,12,02,31,287,29,08,72,255,28,10,58,057,42,14,08,329,17*70
$GPGSV,3,2,12,16,07,196,,21,48,291,27,23,22,052,21,24,00,043,*71
$GPGSV,3,3,12,27,55,164,23,32,38,121,35,33,26,224,28,36,35,164,28*73
$GLGSV,3,1,11,66,10,025,,67,54,059,34,68,52,158,,69,09,188,*68
$GLGSV,3,2,11,73,09,257,15,74,19,298,,75,09,350,,81,00,113,*62
$GLGSV,3,3,11,82,43,096,20,83,70,014,,84,19,304,*5F
$GNGLL,4712.82362,N,01933.15260,E,144511.00,A,A*76
$GNRMC,144512.00,A,4712.82473,N,01933.15334,E,0.027,,280424,,,A*66
$GNVTG,,T,,M,0.027,N,0.051,K,A*3C
$GNGGA,144512.00,4712.82473,N,01933.15334,E,1,07,1.42,132.7,M,38.7,M,,*4C
$GNGSA,A,3,08,10,27,21,32,02,,,,,,,3.23,1.42,2.91*1F
$GNGSA,A,3,67,,,,,,,,,,,,3.23,1.42,2.91*12
$GPGSV,3,1,12,02,31,287,29,08,72,255,28,10,58,057,41,14,08,329,16*72
$GPGSV,3,2,12,16,07,196,,21,48,291,26,23,22,052,20,24,00,043,17*77
$GPGSV,3,3,12,27,55,164,23,32,38,121,37,33,26,224,28,36,35,164,28*71
$GLGSV,3,1,11,66,10,025,,67,54,059,33,68,52,158,,69,09,188,*6F
$GLGSV,3,2,11,73,09,257,14,74,19,298,,75,09,350,,81,00,113,*63
$GLGSV,3,3,11,82,43,096,,83,70,014,,84,19,304,*5D
$GNGLL,4712.82473,N,01933.15334,E,144512.00,A,A*72
$GNRMC,144513.00,A,4712.82566,N,01933.15419,E,0.083,,280424,,,A*64
$GNVTG,,T,,M,0.083,N,0.153,K,A*31
$GNGGA,144513.00,4712.82566,N,01933.15419,E,1,08,1.24,130.3,M,38.7,M,,*49
$GNGSA,A,3,08,10,27,21,32,02,23,,,,,,2.51,1.24,2.18*1B
$GNGSA,A,3,67,,,,,,,,,,,,2.51,1.24,2.18*17
$GPGSV,3,1,12,02,31,287,31,08,72,255,28,10,58,057,40,14,08,329,15*79
$GPGSV,3,2,12,16,07,196,,21,48,291,25,23,22,052,21,24,00,043,15*77
$GPGSV,3,3,12,27,55,164,24,32,38,121,34,36,35,164,27,49,34,199,30*78
$GLGSV,3,1,11,66,10,025,,67,54,059,32,68,52,158,,69,09,188,*6E
$GLGSV,3,2,11,73,09,257,13,74,19,298,,75,09,350,,81,00,113,*64
$GLGSV,3,3,11,82,43,096,,83,70,014,,84,19,304,*5D
$GNGLL,4712.82566,N,01933.15419,E,144513.00,A,A*7E
$GNRMC,144514.00,A,4712.82603,N,01933.15414,E,0.600,,280424,,,A*63
$GNVTG,,T,,M,0.600,N,1.111,K,A*3B
$GNGGA,144514.00,4712.82603,N,01933.15414,E,1,08,1.24,131.7,M,38.7,M,,*46
$GNGSA,A,3,08,10,27,21,32,02,23,,,,,,2.51,1.24,2.18*1B
$GNGSA,A,3,67,,,,,,,,,,,,2.51,1.24,2.18*17
$GPGSV,3,1,12,02,31,287,30,08,72,255,28,10,58,057,41,14,08,329,16*7A
$GPGSV,3,2,12,16,07,196,22,21,48,291,27,23,22,052,22,24,00,043,13*70
$GPGSV,3,3,12,27,55,164,21,32,38,121,38,36,35,164,27,49,34,199,30*71
$GLGSV,3,1,11,66,10,025,,67,54,059,33,68,52,158,,69,09,188,*6F
$GLGSV,3,2,11,73,09,257,12,74,19,298,,75,09,350,,81,00,113,*65
$GLGSV,3,3,11,82,43,096,,83,70,014,,84,19,304,*5D
$GNGLL,4712.82603,N,01933.15414,E,144514.00,A,A*74
$GNRMC,144515.00,A,4712.82635,N,01933.15422,E,0.204,,280424,,,A*62
$GNVTG,,T,,M,0.204,N,0.378,K,A*37
$GNGGA,144515.00,4712.82635,N,01933.15422,E,1,08,1.24,131.6,M,38.7,M,,*46
$GNGSA,A,3,08,10,27,21,32,02,23,,,,,,2.51,1.24,2.18*1B
$GNGSA,A,3,67,,,,,,,,,,,,2.51,1.24,2.18*17
$GPGSV,3,1,12,02,31,287,30,08,72,255,28,10,58,057,38,14,08,329,15*77
$GPGSV,3,2,12,16,07,196,20,21,48,291,26,23,22,052,23,24,00,043,14*75
$GPGSV,3,3,12,27,55,164,30,32,38,121,36,36,35,164,28,49,34,199,30*70
$GLGSV,3,1,11,66,10,025,,67,54,059,32,68,52,158,,69,09,188,*6E
$GLGSV,3,2,11,73,09,257,12,74,19,298,,75,09,350,,81,00,113,*65
$GLGSV,3,3,11,82,43,096,,83,70,014,,84,19,304,*5D
$GNGLL,4712.82635,N,01933.15422,E,144515.00,A,A*75
$GNRMC,144516.00,A,4712.82658,N,01933.15428,E,0.417,,280424,,,A*64
$GNVTG,,T,,M,0.417,N,0.772,K,A*3D
$GNGGA,144516.00,4712.82658,N,01933.15428,E,1,08,1.24,131.2,M,38.7,M,,*40
$GNGSA,A,3,08,10,27,21,32,02,23,,,,,,2.51,1.24,2.18*1B
$GNGSA,A,3,67,,,,,,,,,,,,2.51,1.24,2.18*17
$GPGSV,3,1,11,02,31,287,30,08,72,255,27,10,58,057,35,14,08,329,14*77
$GPGSV,3,2,11,16,07,196,18,21,48,291,25,23,22,052,23,24,00,043,*7B
$GPGSV,3,3,11,27,55,164,23,32,38,121,28,49,34,199,29*4C
$GLGSV,3,1,11,66,10,025,,67,54,059,30,68,52,158,,69,09,188,*6C
$GLGSV,3,2,11,73,09,257,12,74,19,298,,75,09,350,,81,00,113,*65
$GLGSV,3,3,11,82,43,096,,83,70,014,,84,19,304,*5D
$GNGLL,4712.82658,N,01933.15428,E,144516.00,A,A*77
$GNRMC,144517.00,A,4712.82712,N,01933.15438,E,2.640,287.37,280424,,,A*7E
$GNVTG,287.37,T,,M,2.640,N,4.890,K,A*2F
$GNGGA,144517.00,4712.82712,N,01933.15438,E,1,07,1.36,131.8,M,38.7,M,,*49
$GNGSA,A,3,08,27,21,32,02,23,,,,,,,2.85,1.36,2.50*1C
$GNGSA,A,3,67,,,,,,,,,,,,2.85,1.36,2.50*11
$GPGSV,3,1,10,02,31,287,31,08,72,255,27,10,58,057,,14,08,329,15*70
$GPGSV,3,2,10,16,07,196,18,21,48,291,26,23,22,052,22,24,00,043,19*70
$GPGSV,3,3,10,27,55,164,25,32,38,121,31*73
$GLGSV,3,1,11,66,10,025,,67,54,059,24,68,52,158,,69,09,188,*69
$GLGSV,3,2,11,73,09,257,13,74,19,298,,75,09,350,,81,00,113,*64
$GLGSV,3,3,11,82,43,096,,83,70,014,,84,19,304,*5D
$GNGLL,4712.82712,N,01933.15438,E,144517.00,A,A*78
$GNRMC,144518.00,A,4712.82745,N,01933.15446,E,1.541,,280424,,,A*6C
$GNVTG,,T,,M,1.541,N,2.854,K,A*37
$GNGGA,144518.00,4712.82745,N,01933.15446,E,1,06,1.63,132.2,M,38.7,M,,*45
$GNGSA,A,3,08,27,21,32,02,,,,,,,,3.40,1.63,2.99*10
$GNGSA,A,3,67,,,,,,,,,,,,3.40,1.63,2.99*1C
$GPGSV,3,1,10,02,31,287,30,08,72,255,29,10,58,057,,14,08,329,*7B
$GPGSV,3,2,10,16,07,196,19,21,48,291,32,23,22,052,22,24,00,043,19*74
$GPGSV,3,3,10,27,55,164,31,32,38,121,24*72
$GLGSV,3,1,11,66,10,025,,67,54,059,24,68,52,158,,69,09,188,*69
$GLGSV,3,2,11,73,09,257,14,74,19,298,,75,09,350,,81,00,113,*63
$GLGSV,3,3,11,82,43,096,,83,70,014,,84,19,304,*5D
$GNGLL,4712.82745,N,01933.15446,E,144518.00,A,A*7C
$GNRMC,144519.00,A,4712.82764,N,01933.15470,E,0.648,,280424,,,A*60
$GNVTG,,T,,M,0.648,N,1.201,K,A*35
$GNGGA,144519.00,4712.82764,N,01933.15470,E,1,06,1.63,131.6,M,38.7,M,,*45
$GNGSA,A,3,08,27,21,32,02,,,,,,,,3.40,1.63,2.99*10
$GNGSA,A,3,67,,,,,,,,,,,,3.40,1.63,2.99*1C
$GPGSV,3,1,10,02,31,287,30,08,72,255,31,10,58,057,,14,08,329,20*70
$GPGSV,3,2,10,16,07,196,19,21,48,291,31,23,22,052,20,24,00,043,17*7B
$GPGSV,3,3,10,27,55,164,30,32,38,121,31*77
$GLGSV,3,1,11,66,10,025,21,67,54,059,24,68,52,158,,69,09,188,*6A
$GLGSV,3,2,11,73,09,257,14,74,19,298,,75,09,350,,81,00,113,*63
$GLGSV,3,3,11,82,43,096,23,83,70,014,,84,19,304,*5C
$GNGLL,4712.82764,N,01933.15470,E,144519.00,A,A*7B
$GNRMC,144520.00,A,4712.82791,N,01933.15485,E,1.218,,280424,,,A*6A
$GNVTG,,T,,M,1.218,N,2.255,K,A*37
$GNGGA,144520.00,4712.82791,N,01933.15485,E,1,06,1.63,131.5,M,38.7,M,,*4C
$GNGSA,A,3,08,27,21,32,02,,,,,,,,3.41,1.63,2.99*11
$GNGSA,A,3,67,,,,,,,,,,,,3.41,1.63,2.99*1D
$GPGSV,3,1,11,02,31,287,32,08,72,255,32,10,58,057,19,14,08,329,19*72
$GPGSV,3,2,11,16,07,196,,21,48,291,33,23,22,052,19,24,00,043,17*7A
$GPGSV,3,3,11,27,55,164,31,32,38,121,30,33,26,224,29*4D
$GLGSV,3,1,11,66,10,025,,67,54,059,26,68,52,158,,69,09,188,*6B
$GLGSV,3,2,11,73,09,257,13,74,19,298,,75,09,350,,81,00,113,*64
$GLGSV,3,3,11,82,43,096,30,83,70,014,,84,19,304,*5E
$GNGLL,4712.82791,N,01933.15485,E,144520.00,A,A*71
$GNRMC,144521.00,A,4712.82783,N,01933.15511,E,1.026,,280424,,,A*6B
$GNVTG,,T,,M,1.026,N,1.900,K,A*30
$GNGGA,144521.00,4712.82783,N,01933.15511,E,1,06,1.63,130.5,M,38.7,M,,*43
$GNGSA,A,3,08,27,21,32,02,,,,,,,,3.41,1.63,2.99*11
$GNGSA,A,3,67,,,,,,,,,,,,3.41,1.63,2.99*1D
$GPGSV,3,1,12,02,31,287,32,08,72,255,33,10,58,057,20,14,08,329,*72
$GPGSV,3,2,12,16,07,196,,21,48,291,33,23,22,052,23,24,00,043,18*7F
$GPGSV,3,3,12,27,55,164,33,32,38,121,29,33,26,224,30,49,34,199,30*74
$GLGSV,3,1,11,66,10,025,25,67,54,059,27,68,52,158,,69,09,188,*6D
$GLGSV,3,2,11,73,09,257,14,74,19,298,,75,09,350,,81,00,113,*63
$GLGSV,3,3,11,82,43,096,23,83,70,014,,84,19,304,*5C
$GNGLL,4712.82783,N,01933.15511,E,144521.00,A,A*7F
$GNRMC,144522.00,A,4712.82775,N,01933.15544,E,0.857,,280424,,,A*6E
$GNVTG,,T,,M,0.857,N,1.588,K,A*33
$GNGGA,144522.00,4712.82775,N,01933.15544,E,1,06,1.63,132.8,M,38.7,M,,*46
$GNGSA,A,3,08,27,21,32,02,,,,,,,,3.41,1.63,2.99*11
$GNGSA,A,3,67,,,,,,,,,,,,3.41,1.63,2.99*1D
$GPGSV,3,1,12,02,31,287,32,08,72,254,34,10,58,057,19,14,08,329,*7E
$GPGSV,3,2,12,16,07,196,,21,48,291,33,23,22,052,21,24,00,043,*74
$GPGSV,3,3,12,27,55,164,33,32,38,121,30,33,26,224,30,49,34,199,29*74
$GLGSV,3,1,11,66,10,025,,67,54,059,28,68,52,158,27,69,09,188,*60
$GLGSV,3,2,11,73,09,257,,74,19,298,,75,09,350,,81,00,113,*66
$GLGSV,3,3,11,82,43,096,20,83,70,014,,84,19,304,*5F
$GNGLL,4712.82775,N,01933.15544,E,144522.00,A,A*75
$GNRMC,144523.00,A,4712.82775,N,01933.15580,E,0.939,,280424,,,A*6E
$GNVTG,,T,,M,0.939,N,1.739,K,A*32
$GNGGA,144523.00,4712.82775,N,01933.15580,E,1,08,1.48,132.7,M,38.7,M,,*47
$GNGSA,A,3,08,27,21,32,02,,,,,,,,3.34,1.48,2.99*1A
$GNGSA,A,3,67,68,82,,,,,,,,,,3.34,1.48,2.99*12
$GPGSV,3,1,12,02,31,287,33,08,72,254,29,10,58,057,33,14,08,329,21*78
$GPGSV,3,2,12,16,07,196,,21,48,291,33,23,22,052,20,24,00,043,*75
$GPGSV,3,3,12,27,55,164,28,32,38,121,29,33,26,224,30,49,34,199,29*76
$GLGSV,3,1,11,66,10,025,,67,54,059,29,68,52,158,25,69,09,188,*63
$GLGSV,3,2,11,73,09,257,,74,19,298,,75,09,350,,81,00,113,*66
$GLGSV,3,3,11,82,43,096,19,83,70,014,,84,19,304,*55
$GNGLL,4712.82775,N,01933.15580,E,144523.00,A,A*7C
$GNRMC,144524.00,A,4712.82786,N,01933.15535,E,1.737,,280424,,,A*6A
$GNVTG,,T,,M,1.737,N,3.217,K,A*38
$GNGGA,144524.00,4712.82786,N,01933.15535,E,1,09,1.28,131.7,M,38.7,M,,*46
$GNGSA,A,3,08,10,27,21,32,02,23,,,,,,3.18,1.28,2.91*1A
$GNGSA,A,3,67,68,,,,,,,,,,,3.18,1.28,2.91*18
$GPGSV,3,1,12,02,31,287,32,08,72,254,31,10,58,056,32,14,08,329,21*70
$GPGSV,3,2,12,16,07,196,,21,48,291,33,23,22,052,20,24,00,043,*75
$GPGSV,3,3,12,27,55,164,32,32,38,121,28,33,26,224,30,49,34,199,30*74
$GLGSV,3,1,11,66,10,025,,67,54,059,29,68,52,158,25,69,09,188,*63
$GLGSV,3,2,11,73,09,257,,74,19,298,,75,09,350,,81,00,113,*66
$GLGSV,3,3,11,82,43,096,,83,70,014,,84,19,304,*5D
$GNGLL,4712.82786,N,01933.15535,E,144524.00,A,A*79
$GNRMC,144525.00,A,4712.82821,N,01933.15527,E,0.375,,280424,,,A*69
$GNVTG,,T,,M,0.375,N,0.695,K,A*36
$GNGGA,144525.00,4712.82821,N,01933.15527,E,1,08,1.28,130.6,M,38.7,M,,*47
$GNGSA,A,3,08,10,27,21,32,02,,,,,,,3.18,1.28,2.91*1B
$GNGSA,A,3,67,68,,,,,,,,,,,3.18,1.28,2.91*18
$GPGSV,3,1,11,02,31,287,33,08,72,254,31,10,58,056,32,14,08,329,*71
$GPGSV,3,2,11,16,07,196,,21,48,291,33,23,22,052,,24,00,043,*74
$GPGSV,3,3,11,27,55,164,32,32,38,121,27,33,26,224,30*40
$GLGSV,3,1,11,66,10,025,23,67,54,059,28,68,52,158,25,69,09,188,*63
$GLGSV,3,2,11,73,09,257,,74,19,298,,75,09,350,,81,00,113,*66
$GLGSV,3,3,11,82,43,096,26,83,70,014,,84,19,304,*59
$GNGLL,4712.82821,N,01933.15527,E,144525.00,A,A*79
$GNRMC,144526.00,A,4712.82871,N,01933.15587,E,1.459,,280424,,,A*6D
$GNVTG,,T,,M,1.459,N,2.703,K,A*32
$GNGGA,144526.00,4712.82871,N,01933.15587,E,1,07,1.43,128.6,M,38.7,M,,*40
$GNGSA,A,3,08,10,27,21,02,,,,,,,,4.09,1.43,3.83*12
$GNGSA,A,3,67,68,,,,,,,,,,,4.09,1.43,3.83*10
$GPGSV,3,1,11,02,31,287,32,08,72,254,32,10,58,056,32,14,08,329,*73
$GPGSV,3,2,11,16,07,196,,21,48,291,33,23,22,052,,24,00,043,20*76
$GPGSV,3,3,11,27,55,164,32,32,38,121,,33,26,224,30*45
$GLGSV,3,1,11,66,10,025,27,67,54,059,28,68,52,158,24,69,09,188,*66
$GLGSV,3,2,11,73,09,257,,74,19,298,,75,09,350,,81,00,113,*66
$GLGSV,3,3,11,82,43,096,,83,70,014,,84,19,304,*5D
$GNGLL,4712.82871,N,01933.15587,E,144526.00,A,A*75
$GNRMC,144527.00,A,4712.82879,N,01933.15600,E,0.612,,280424,,,A*64
$GNVTG,,T,,M,0.612,N,1.133,K,A*38
$GNGGA,144527.00,4712.82879,N,01933.15600,E,1,07,1.43,128.4,M,38.7,M,,*47
$GNGSA,A,3,08,10,27,21,02,,,,,,,,4.10,1.43,3.84*1D
$GNGSA,A,3,67,68,,,,,,,,,,,4.10,1.43,3.84*1F
$GPGSV,3,1,11,02,31,287,32,08,72,254,28,10,58,056,32,14,08,329,*78
$GPGSV,3,2,11,16,07,196,,21,48,291,33,23,22,052,22,24,00,043,*74
$GPGSV,3,3,11,27,55,164,31,32,38,121,33,49,34,199,31*4C
$GLGSV,3,1,11,66,10,025,,67,54,059,28,68,52,158,23,69,09,188,*64
$GLGSV,3,2,11,73,09,257,,74,19,298,,75,09,350,,81,00,113,*66
$GLGSV,3,3,11,82,43,096,,83,70,014,,84,19,304,*5D
$GNGLL,4712.82879,N,01933.15600,E,144527.00,A,A*70
$GNRMC,144528.00,A,4712.82882,N,01933.15601,E,0.348,,280424,,,A*64
$GNVTG,,T,,M,0.348,N,0.645,K,A*35
$GNGGA,144528.00,4712.82882,N,01933.15601,E,1,06,1.63,129.4,M,38.7,M,,*4F
$GNGSA,A,3,08,27,21,02,,,,,,,,,4.18,1.63,3.85*17
$GNGSA,A,3,67,68,,,,,,,,,,,4.18,1.63,3.85*14
$GPGSV,3,1,10,02,31,287,31,08,72,254,31,10,58,056,,14,08,328,*72
$GPGSV,3,2,10,16,07,196,,21,48,291,34,23,22,052,21,24,00,043,19*79
$GPGSV,3,3,10,27,55,164,32,32,38,121,21*74
$GLGSV,3,1,11,66,10,025,24,67,54,059,27,68,52,158,22,69,09,188,*6C
$GLGSV,3,2,11,73,09,257,,74,19,298,,75,09,350,,81,00,113,*66
$GLGSV,3,3,11,82,43,096,27,83,70,014,,84,19,304,*58
$GNGLL,4712.82882,N,01933.15601,E,144528.00,A,A*7A
$GNRMC,144529.00,A,4712.82869,N,01933.15611,E,1.469,,280424,,,A*64
$GNVTG,,T,,M,1.469,N,2.720,K,A*30
$GNGGA,144529.00,4712.82869,N,01933.15611,E,1,07,1.43,132.5,M,38.7,M,,*42
$GNGSA,A,3,08,10,27,21,02,,,,,,,,4.10,1.43,3.84*1D
$GNGSA,A,3,67,68,,,,,,,,,,,4.10,1.43,3.84*1F
$GPGSV,3,1,10,02,31,287,32,08,72,254,33,10,58,056,33,14,08,328,22*73
$GPGSV,3,2,10,16,07,196,,21,48,291,30,23,22,052,24,24,00,043,*70
$GPGSV,3,3,10,27,55,164,32,32,38,121,20*75
$GLGSV,3,1,11,66,10,025,28,67,54,059,27,68,52,158,23,69,09,188,*61
$GLGSV,3,2,11,73,09,257,,74,19,298,,75,09,350,,81,00,113,*66
$GLGSV,3,3,11,82,43,096,26,83,70,014,,84,19,304,*59
$GNGLL,4712.82869,N,01933.15611,E,144529.00,A,A*7F
$GNRMC,144530.00,A,4712.82835,N,01933.15578,E,1.699,,280424,,,A*64
$GNVTG,,T,,M,1.699,N,3.147,K,A*3B
$GNGGA,144530.00,4712.82835,N,01933.15578,E,1,07,1.43,133.9,M,38.7,M,,*42
$GNGSA,A,3,08,10,27,21,02,,,,,,,,4.10,1.43,3.84*1D
$GNGSA,A,3,67,68,,,,,,,,,,,4.10,1.43,3.84*1F
$GPGSV,3,1,11,02,31,287,32,08,72,254,34,10,58,056,33,14,08,328,*75
$GPGSV,3,2,11,16,07,196,,21,48,291,34,23,22,052,22,24,00,043,20*71
$GPGSV,3,3,11,27,55,164,33,32,38,121,21,49,34,199,30*4C
$GLGSV,3,1,11,66,10,025,,67,54,059,26,68,52,158,23,69,09,188,*6A
$GLGSV,3,2,11,73,09,257,,74,19,298,,75,09,350,,81,00,113,*66
$GLGSV,3,3,11,82,43,096,,83,70,014,,84,19,304,*5D
$GNGLL,4712.82835,N,01933.15578,E,144530.00,A,A*72
$GNRMC,144531.00,A,4712.82833,N,01933.15553,E,0.804,,280424,,,A*61
$GNVTG,,T,,M,0.804,N,1.488,K,A*34
$GNGGA,144531.00,4712.82833,N,01933.15553,E,1,07,1.43,133.5,M,38.7,M,,*40
$GNGSA,A,3,08,10,27,21,02,,,,,,,,4.10,1.43,3.84*1D
$GNGSA,A,3,67,68,,,,,,,,,,,4.10,1.43,3.84*1F
$GPGSV,4,1,13,02,31,287,32,08,72,254,33,10,58,056,33,14,08,328,*77
$GPGSV,4,2,13,16,07,196,,21,48,291,34,23,22,052,34,24,00,043,*71
$GPGSV,4,3,13,27,55,164,33,32,38,121,21,33,26,224,28,36,35,164,31*79
$GPGSV,4,4,13,49,34,199,30*43
$GLGSV,3,1,11,66,10,025,19,67,54,059,26,68,52,158,22,69,09,188,*63
$GLGSV,3,2,11,73,09,257,,74,19,298,,75,09,350,,81,00,113,*66
$GLGSV,3,3,11,82,43,096,24,83,70,014,,84,19,304,*5B
$GNGLL,4712.82833,N,01933.15553,E,144531.00,A,A*7C
$GNRMC,144532.00,A,4712.82836,N,01933.15533,E,0.495,,280424,,,A*65
$GNVTG,,T,,M,0.495,N,0.917,K,A*3A
$GNGGA,144532.00,4712.82836,N,01933.15533,E,1,07,1.43,131.5,M,38.7,M,,*42
$GNGSA,A,3,08,10,27,21,02,,,,,,,,4.10,1.43,3.84*1D
$GNGSA,A,3,67,68,,,,,,,,,,,4.10,1.43,3.84*1F
$GPGSV,3,1,12,02,31,287,33,08,72,254,33,10,58,056,33,14,08,328,*70
$GPGSV,3,2,12,16,07,196,,21,48,291,33,23,22,052,22,24,00,043,20*75
$GPGSV,3,3,12,27,55,164,32,32,38,121,24,33,26,224,30,49,34,199,30*78
$GLGSV,3,1,11,66,10,025,,67,54,059,26,68,52,158,22,69,09,188,*6B
$GLGSV,3,2,11,73,09,257,,74,19,298,,75,09,350,,81,00,113,*66
$GLGSV,3,3,11,82,43,096,25,83,70,014,,84,19,304,*5A
$GNGLL,4712.82836,N,01933.15533,E,144532.00,A,A*7C
$GNRMC,144533.00,A,4712.82708,N,01933.15502,E,4.789,210.19,280424,,,A*7B
$GNVTG,210.19,T,,M,4.789,N,8.869,K,A*25
$GNGGA,144533.00,4712.82708,N,01933.15502,E,1,07,1.43,127.8,M,38.7,M,,*49
$GNGSA,A,3,08,10,27,21,02,,,,,,,,4.10,1.43,3.84*1D
$GNGSA,A,3,67,68,,,,,,,,,,,4.10,1.43,3.84*1F
$GPGSV,3,1,12,02,31,287,32,08,72,254,33,10,58,056,32,14,08,328,*70
$GPGSV,3,2,12,16,07,196,,21,48,291,34,23,22,052,35,24,00,043,*76
$GPGSV,3,3,12,27,55,164,32,32,38,121,33,33,26,224,30,49,34,199,30*7E
$GLGSV,3,1,11,66,10,025,,67,54,059,24,68,52,158,22,69,09,188,*69
$GLGSV,3,2,11,73,09,257,,74,19,298,,75,09,350,,81,00,113,*66
$GLGSV,3,3,11,82,43,096,24,83,70,014,,84,19,304,*5B
$GNGLL,4712.82708,N,01933.15502,E,144533.00,A,A*7D
$GNRMC,144534.00,A,4712.82620,N,01933.15380,E,4.289,213.79,280424,,,A*7B
$GNVTG,213.79,T,,M,4.289,N,7.943,K,A*23
$GNGGA,144534.00,4712.82620,N,01933.15380,E,1,06,1.48,127.8,M,38.7,M,,*43
$GNGSA,A,3,08,10,27,21,,,,,,,,,6.67,1.48,6.50*1A
$GNGSA,A,3,67,68,,,,,,,,,,,6.67,1.48,6.50*1A
$GPGSV,3,1,12,02,31,287,,08,72,254,33,10,58,056,31,14,08,328,*72
$GPGSV,3,2,12,16,07,196,,21,48,291,34,23,22,052,24,24,00,043,24*70
$GPGSV,3,3,12,27,55,164,34,32,38,121,,33,26,224,30,49,34,199,30*78
$GLGSV,3,1,11,66,10,025,,67,54,059,23,68,52,158,23,69,09,188,*6F
$GLGSV,3,2,11,73,09,257,,74,19,298,,75,09,350,,81,00,113,*66
$GLGSV,3,3,11,82,43,096,,83,70,014,,84,19,304,*5D
$GNGLL,4712.82620,N,01933.15380,E,144534.00,A,A*7D
$GNRMC,144535.00,A,4712.82623,N,01933.15375,E,0.672,,280424,,,A*67
$GNVTG,,T,,M,0.672,N,1.245,K,A*3C
$GNGGA,144535.00,4712.82623,N,01933.15375,E,1,06,1.48,127.6,M,38.7,M,,*45
$GNGSA,A,3,08,10,27,21,,,,,,,,,6.67,1.48,6.50*1A
$GNGSA,A,3,67,68,,,,,,,,,,,6.67,1.48,6.50*1A
$GPGSV,3,1,12,02,31,287,,08,72,254,33,10,58,056,33,14,08,328,*70
$GPGSV,3,2,12,16,07,196,,21,48,292,34,23,22,052,,24,00,043,*73
$GPGSV,3,3,12,27,55,164,30,32,38,121,27,36,35,164,30,49,34,199,31*78
$GLGSV,3,1,11,66,10,025,25,67,54,059,22,68,52,158,23,69,09,188,*69
$GLGSV,3,2,11,73,09,257,,74,19,298,,75,09,350,,81,00,113,*66
$GLGSV,3,3,11,82,43,096,24,83,70,014,,84,19,304,*5B
$GNGLL,4712.82623,N,01933.15375,E,144535.00,A,A*75
$GNRMC,144536.00,A,4712.82641,N,01933.15326,E,1.612,,280424,,,A*61
$GNVTG,,T,,M,1.612,N,2.985,K,A*3F
$GNGGA,144536.00,4712.82641,N,01933.15326,E,1,08,1.28,127.2,M,38.7,M,,*48
$GNGSA,A,3,08,10,27,21,32,02,,,,,,,3.19,1.28,2.92*19
$GNGSA,A,3,67,68,,,,,,,,,,,3.19,1.28,2.92*1A
$GPGSV,4,1,13,02,31,287,32,08,72,254,27,10,58,056,35,14,08,328,*74
$GPGSV,4,2,13,16,07,196,,21,48,292,30,23,22,052,21,24,00,043,26*76
$GPGSV,4,3,13,27,55,164,29,32,38,121,27,33,26,224,31,36,35,164,30*7D
$GPGSV,4,4,13,49,34,199,30*43
$GLGSV,3,1,11,66,10,025,26,67,54,059,23,68,52,158,21,69,09,188,*69
$GLGSV,3,2,11,73,09,257,,74,19,298,,75,09,350,,81,00,113,*66
$GLGSV,3,3,11,82,43,096,23,83,70,014,,84,19,304,*5C
$GNGLL,4712.82641,N,01933.15326,E,144536.00,A,A*74
$GNRMC,144537.00,A,4712.82622,N,01933.15335,E,1.011,,280424,,,A*62
$GNVTG,,T,,M,1.011,N,1.873,K,A*31
$GNGGA,144537.00,4712.82622,N,01933.15335,E,1,06,1.58,127.0,M,38.7,M,,*45
$GNGSA,A,3,08,10,21,32,,,,,,,,,4.89,1.58,4.63*1F
$GNGSA,A,3,67,68,,,,,,,,,,,4.89,1.58,4.63*1B
$GPGSV,3,1,12,02,31,287,,08,72,254,27,10,58,056,31,14,08,328,21*74
$GPGSV,3,2,12,16,07,196,,21,48,292,31,23,22,052,,24,00,043,23*77
$GPGSV,3,3,12,27,55,164,,32,38,121,27,33,26,224,29,49,34,199,29*7A
$GLGSV,3,1,11,66,10,025,31,67,54,059,26,68,52,158,22,69,09,188,*69
$GLGSV,3,2,11,73,09,257,,74,19,298,,75,09,350,,81,00,113,*66
$GLGSV,3,3,11,82,43,096,,83,70,014,,84,19,304,*5D
$GNGLL,4712.82622,N,01933.15335,E,144537.00,A,A*72
$GNRMC,144538.00,A,4712.82577,N,01933.15373,E,2.305,192.64,280424,,,A*7F
$GNVTG,192.64,T,,M,2.305,N,4.268,K,A*27
$GNGGA,144538.00,4712.82577,N,01933.15373,E,1,07,1.43,129.0,M,38.7,M,,*4E
$GNGSA,A,3,08,10,27,21,32,,,,,,,,4.75,1.43,4.53*10
$GNGSA,A,3,67,68,,,,,,,,,,,4.75,1.43,4.53*11
$GPGSV,3,1,12,02,31,287,30,08,72,254,28,10,58,056,30,14,08,328,19*72
$GPGSV,3,2,12,16,07,196,,21,48,292,30,23,22,052,20,24,00,043,21*76
$GPGSV,3,3,12,27,55,164,31,32,38,121,28,33,26,224,29,49,34,199,29*77
$GLGSV,3,1,11,66,10,025,,67,54,059,26,68,52,158,22,69,09,188,*6B
$GLGSV,3,2,11,73,09,257,,74,19,298,,75,09,350,,81,00,113,*66
$GLGSV,3,3,11,82,43,096,17,83,70,014,,84,19,304,*5B
$GNGLL,4712.82577,N,01933.15373,E,144538.00,A,A*7C
$GNRMC,144539.00,A,4712.82574,N,01933.15440,E,1.949,,280424,,,A*6D
$GNVTG,,T,,M,1.949,N,3.610,K,A*3C
$GNGGA,144539.00,4712.82574,N,01933.15440,E,1,07,1.34,128.6,M,38.7,M,,*4C
$GNGSA,A,3,08,10,27,32,02,,,,,,,,3.23,1.34,2.94*18
$GNGSA,A,3,67,68,,,,,,,,,,,3.23,1.34,2.94*18
$GPGSV,3,1,12,02,31,287,33,08,72,254,30,10,58,056,31,14,08,328,20*73
$GPGSV,3,2,12,16,07,196,,21,48,292,,23,22,052,21,24,00,043,*77
$GPGSV,3,3,12,27,55,164,32,32,38,121,29,33,26,224,30,49,34,199,30*75
$GLGSV,3,1,11,66,10,025,23,67,54,059,25,68,52,158,22,69,09,188,*69
$GLGSV,3,2,11,73,09,257,,74,19,298,,75,09,350,,81,00,113,*66
$GLGSV,3,3,11,82,43,096,26,83,70,014,,84,19,304,*59
$GNGLL,4712.82574,N,01933.15440,E,144539.00,A,A*79
$GNRMC,144540.00,A,4712.82579,N,01933.15472,E,1.302,,280424,,,A*6A
$GNVTG,,T,,M,1.302,N,2.412,K,A*38
$GNGGA,144540.00,4712.82579,N,01933.15472,E,1,08,1.28,127.1,M,38.7,M,,*44
$GNGSA,A,3,08,10,27,21,32,02,,,,,,,3.19,1.28,2.93*18
$GNGSA,A,3,67,68,,,,,,,,,,,3.19,1.28,2.93*1B
$GPGSV,4,1,13,02,31,287,33,08,72,254,31,10,58,056,28,14,08,328,*7E
$GPGSV,4,2,13,16,07,196,,21,48,292,33,23,22,052,23,24,00,043,*73
$GPGSV,4,3,13,27,55,164,32,32,38,121,29,33,26,224,30,36,35,164,31*79
$GPGSV,4,4,13,49,34,199,30*43
$GLGSV,3,1,11,66,10,025,22,67,54,059,23,68,52,158,22,69,09,188,*6E
$GLGSV,3,2,11,73,09,257,,74,19,298,,75,09,350,,81,00,113,*66
$GLGSV,3,3,11,82,43,096,25,83,70,014,,84,19,304,*5A
$GNGLL,4712.82579,N,01933.15472,E,144540.00,A,A*7B
$GNRMC,144541.00,A,4712.82610,N,01933.15529,E,2.259,,280424,,,A*64
$GNVTG,,T,,M,2.259,N,4.185,K,A*39
$GNGGA,144541.00,4712.82610,N,01933.15529,E,1,09,1.43,125.6,M,38.7,M,,*4F
$GNGSA,A,3,08,10,27,21,32,02,,,,,,,4.11,1.43,3.85*1C
$GNGSA,A,3,67,68,66,,,,,,,,,,4.11,1.43,3.85*1F
$GPGSV,4,1,13,02,31,287,33,08,72,254,31,10,58,056,30,14,08,328,*77
$GPGSV,4,2,13,16,07,196,,21,48,292,33,23,22,052,21,24,00,043,*71
$GPGSV,4,3,13,27,54,164,32,32,38,121,29,33,26,224,30,36,35,164,30*79
$GPGSV,4,4,13,49,34,199,29*4B
$GLGSV,3,1,11,66,10,025,22,67,54,059,23,68,52,158,22,69,09,188,*6E
$GLGSV,3,2,11,73,09,257,,74,19,298,,75,09,350,,81,00,113,*66
$GLGSV,3,3,11,82,43,096,26,83,70,014,,84,19,304,*59
$GNGLL,4712.82610,N,01933.15529,E,144541.00,A,A*79
$GNRMC,144542.00,A,4712.82621,N,01933.15571,E,1.667,,280424,,,A*62
$GNVTG,,T,,M,1.667,N,3.087,K,A*37
$GNGGA,144542.00,4712.82621,N,01933.15571,E,1,08,1.28,126.0,M,38.7,M,,*4A
$GNGSA,A,3,08,10,27,21,32,02,,,,,,,3.19,1.28,2.93*18
$GNGSA,A,3,67,68,,,,,,,,,,,3.19,1.28,2.93*1B
$GPGSV,4,1,13,02,31,287,32,08,72,254,31,10,58,056,30,14,08,328,24*70
$GPGSV,4,2,13,16,07,196,33,21,48,292,33,23,22,052,25,24,00,043,*75
$GPGSV,4,3,13,27,54,164,33,32,38,121,29,33,26,224,30,36,35,164,29*70
$GPGSV,4,4,13,49,34,199,30*43
$GLGSV,3,1,11,66,10,025,20,67,54,059,22,68,52,158,21,69,09,188,*6E
$GLGSV,3,2,11,73,09,257,,74,19,298,,75,09,350,,81,00,113,*66
$GLGSV,3,3,11,82,43,096,,83,70,014,,84,19,304,*5D
$GNGLL,4712.82621,N,01933.15571,E,144542.00,A,A*75
$GNRMC,144543.00,A,4712.82552,N,01933.15671,E,2.237,,280424,,,A*65
$GNVTG,,T,,M,2.237,N,4.143,K,A*3B
$GNGGA,144543.00,4712.82552,N,01933.15671,E,1,08,1.28,124.6,M,38.7,M,,*4B
$GNGSA,A,3,08,10,27,21,32,02,,,,,,,3.19,1.28,2.93*18
$GNGSA,A,3,67,68,,,,,,,,,,,3.19,1.28,2.93*1B
$GPGSV,4,1,13,02,31,287,32,08,72,254,31,10,58,056,31,14,08,328,*77
$GPGSV,4,2,13,16,07,196,,21,48,292,33,23,22,052,25,24,00,043,*75
$GPGSV,4,3,13,27,54,164,35,32,38,121,29,33,26,224,30,36,35,164,30*7E
$GPGSV,4,4,13,49,34,199,31*42
$GLGSV,3,1,11,66,10,025,,67,54,059,21,68,52,158,22,69,09,188,*6C
$GLGSV,3,2,11,73,09,257,,74,19,298,,75,09,350,,81,00,113,*66
$GLGSV,3,3,11,82,43,096,24,83,70,014,,84,19,304,*5B
$GNGLL,4712.82552,N,01933.15671,E,144543.00,A,A*70
$GNRMC,144544.00,A,4712.82608,N,01933.15766,E,2.469,,280424,,,A*64
$GNVTG,,T,,M,2.469,N,4.572,K,A*30
$GNGGA,144544.00,4712.82608,N,01933.15766,E,1,08,1.28,123.4,M,38.7,M,,*42
$GNGSA,A,3,08,10,27,21,32,02,,,,,,,3.20,1.28,2.93*12
$GNGSA,A,3,67,68,,,,,,,,,,,3.20,1.28,2.93*11
$GPGSV,4,1,13,02,31,287,33,08,72,254,31,10,58,056,30,14,08,328,*77
$GPGSV,4,2,13,16,07,196,,21,48,292,33,23,22,052,26,24,00,043,26*72
$GPGSV,4,3,13,27,54,164,31,32,38,121,28,33,26,224,30,36,35,164,30*7B
$GPGSV,4,4,13,49,34,199,31*42
$GLGSV,3,1,11,66,10,025,22,67,54,059,22,68,52,158,20,69,09,188,*6D
$GLGSV,3,2,11,73,09,257,,74,19,298,,75,09,350,,81,00,113,*66
$GLGSV,3,3,11,82,43,096,,83,70,014,,84,19,304,*5D
$GNGLL,4712.82608,N,01933.15766,E,144544.00,A,A*7C
$GNRMC,144545.00,A,4712.82619,N,01933.15788,E,1.782,,280424,,,A*60
$GNVTG,,T,,M,1.782,N,3.301,K,A*30
$GNGGA,144545.00,4712.82619,N,01933.15788,E,1,07,1.42,122.7,M,38.7,M,,*42
$GNGSA,A,3,08,10,21,32,02,,,,,,,,3.29,1.42,2.97*16
$GNGSA,A,3,67,68,,,,,,,,,,,3.29,1.42,2.97*10
$GPGSV,3,1,12,02,31,287,33,08,72,254,32,10,58,056,31,14,08,328,*73
$GPGSV,3,2,12,16,07,196,,21,48,292,33,23,22,052,,24,00,043,23*75
$GPGSV,3,3,12,27,54,164,17,32,38,121,29,33,26,224,30,36,35,164,30*78
$GLGSV,3,1,11,66,10,025,,67,54,059,22,68,52,158,21,69,09,188,*6C
$GLGSV,3,2,11,73,09,257,,74,19,298,,75,09,350,,81,00,113,*66
$GLGSV,3,3,11,82,43,096,27,83,70,014,,84,19,304,*58
$GNGLL,4712.82619,N,01933.15788,E,144545.00,A,A*7D
$GNRMC,144546.00,A,4712.82664,N,01933.15853,E,1.983,,280424,,,A*6F
$GNVTG,,T,,M,1.983,N,3.673,K,A*3F
$GNGGA,144546.00,4712.82664,N,01933.15853,E,1,07,1.42,121.3,M,38.7,M,,*45
$GNGSA,A,3,08,10,21,32,02,,,,,,,,3.29,1.42,2.97*16
$GNGSA,A,3,67,68,,,,,,,,,,,3.29,1.42,2.97*10
$GPGSV,3,1,12,02,31,287,34,08,72,254,32,10,58,056,32,14,08,328,*77
$GPGSV,3,2,12,16,07,196,,21,48,292,33,23,22,052,,24,00,043,*74
$GPGSV,3,3,12,27,54,164,18,32,39,120,29,33,26,224,30,36,35,164,31*76
$GLGSV,3,1,11,66,10,025,,67,54,059,25,68,52,158,23,69,09,188,*69
$GLGSV,3,2,11,73,09,257,,74,19,298,,75,09,350,,81,00,113,*66
$GLGSV,3,3,11,82,43,096,,83,70,014,,84,19,304,*5D
$GNGLL,4712.82664,N,01933.15853,E,144546.00,A,A*7D
$GNRMC,144547.00,A,4712.82751,N,01933.15714,E,1.696,,280424,,,A*6E
$GNVTG,,T,,M,1.696,N,3.141,K,A*32
$GNGGA,144547.00,4712.82751,N,01933.15714,E,1,07,1.42,123.0,M,38.7,M,,*4E
$GNGSA,A,3,08,10,21,32,02,,,,,,,,3.29,1.42,2.97*16
$GNGSA,A,3,67,68,,,,,,,,,,,3.29,1.42,2.97*10
$GPGSV,3,1,12,02,31,287,33,08,72,254,32,10,58,056,32,14,08,328,*70
$GPGSV,3,2,12,16,07,196,,21,48,292,34,23,22,052,,24,00,043,23*72
$GPGSV,3,3,12,27,54,164,19,32,39,120,27,33,26,224,30,36,35,164,30*78
$GLGSV,3,1,11,66,10,025,,67,54,059,25,68,52,158,21,69,09,188,*6B
$GLGSV,3,2,11,73,09,257,,74,19,298,,75,09,350,,81,00,113,*66
$GLGSV,3,3,11,82,43,096,25,83,70,014,,84,19,304,*5A
$GNGLL,4712.82751,N,01933.15714,E,144547.00,A,A*77
$GNRMC,144548.00,A,4712.82843,N,01933.15793,E,2.347,,280424,,,A*68
$GNVTG,,T,,M,2.347,N,4.347,K,A*3B
$GNGGA,144548.00,4712.82843,N,01933.15793,E,1,07,1.64,121.2,M,38.7,M,,*46
$GNGSA,A,3,08,10,27,21,02,,,,,,,,4.22,1.64,3.89*14
$GNGSA,A,3,67,68,,,,,,,,,,,4.22,1.64,3.89*16
$GPGSV,4,1,13,02,31,287,33,08,72,254,31,10,58,056,32,14,08,328,19*7D
$GPGSV,4,2,13,16,07,196,,21,48,292,34,23,22,052,24,24,00,043,*73
$GPGSV,4,3,13,27,54,164,19,32,39,120,25,33,26,224,30,36,35,164,31*7D
$GPGSV,4,4,13,49,34,199,29*4B
$GLGSV,3,1,11,66,10,025,,67,54,059,25,68,52,158,20,69,09,188,*6A
$GLGSV,3,2,11,73,09,257,,74,19,298,,75,09,350,,81,00,113,*66
$GLGSV,3,3,11,82,43,096,,83,70,014,,84,19,304,*5D
$GNGLL,4712.82843,N,01933.15793,E,144548.00,A,A*7B
$GNRMC,144549.00,A,4712.82855,N,01933.15733,E,1.465,,280424,,,A*60
$GNVTG,,T,,M,1.465,N,2.712,K,A*3D
$GNGGA,144549.00,4712.82855,N,01933.15733,E,1,06,1.64,121.5,M,38.7,M,,*4C
$GNGSA,A,3,08,10,21,02,,,,,,,,,4.22,1.64,3.89*11
$GNGSA,A,3,67,68,,,,,,,,,,,4.22,1.64,3.89*16
$GPGSV,4,1,13,02,31,287,36,08,72,254,31,10,58,056,34,14,08,328,*76
$GPGSV,4,2,13,16,07,196,36,21,48,292,33,23,22,052,,24,00,043,22*77
$GPGSV,4,3,13,27,54,164,,32,39,120,27,33,26,224,31,36,35,164,30*77
$GPGSV,4,4,13,49,34,199,30*43
$GLGSV,3,1,11,66,10,025,,67,54,059,26,68,52,158,22,69,09,188,*6B
$GLGSV,3,2,11,73,09,257,,74,19,298,,75,09,350,,81,00,113,*66
$GLGSV,3,3,11,82,43,096,21,83,70,014,,84,19,304,*5E
$GNGLL,4712.82855,N,01933.15733,E,144549.00,A,A*77
$GNRMC,144550.00,A,4712.82888,N,01933.15722,E,1.365,,280424,,,A*6F
$GNVTG,,T,,M,1.365,N,2.528,K,A*31
$GNGGA,144550.00,4712.82888,N,01933.15722,E,1,06,1.64,121.3,M,38.7,M,,*42
$GNGSA,A,3,08,10,21,02,,,,,,,,,4.22,1.64,3.89*11
$GNGSA,A,3,67,68,,,,,,,,,,,4.22,1.64,3.89*16
$GPGSV,3,1,12,02,31,287,36,08,72,254,31,10,58,056,29,14,08,328,*7C
$GPGSV,3,2,12,16,07,196,,21,48,292,33,23,22,052,18,24,00,043,21*7E
$GPGSV,3,3,12,27,54,164,19,32,39,120,,36,35,164,30,49,34,199,30*76
$GLGSV,3,1,11,66,10,025,,67,54,059,26,68,52,158,23,69,09,188,*6A
$GLGSV,3,2,11,73,09,257,,74,19,298,,75,09,350,,81,00,113,*66
$GLGSV,3,3,11,82,43,096,,83,70,014,,84,19,304,*5D
$GNGLL,4712.82888,N,01933.15722,E,144550.00,A,A*7F
$GNRMC,144551.00,A,4712.82777,N,01933.15589,E,1.820,,280424,,,A*68
$GNVTG,,T,,M,1.820,N,3.371,K,A*30
$GNGGA,144551.00,4712.82777,N,01933.15589,E,1,06,1.64,121.3,M,38.7,M,,*4F
$GNGSA,A,3,08,10,21,02,,,,,,,,,4.22,1.64,3.89*11
$GNGSA,A,3,67,68,,,,,,,,,,,4.22,1.64,3.89*16
$GPGSV,4,1,13,02,31,287,32,08,72,254,30,10,58,056,31,14,08,328,*76
$GPGSV,4,2,13,16,07,196,24,21,48,292,34,23,22,052,20,24,00,043,*71
$GPGSV,4,3,13,27,54,164,22,32,39,120,27,33,26,224,29,36,35,164,30*7E
$GPGSV,4,4,13,49,34,199,30*43
$GLGSV,3,1,11,66,10,025,26,67,54,059,24,68,52,158,21,69,09,188,*6E
$GLGSV,3,2,11,73,09,257,,74,19,298,,75,09,350,,81,00,113,*66
$GLGSV,3,3,11,82,43,096,18,83,70,014,,84,19,304,*54
$GNGLL,4712.82777,N,01933.15589,E,144551.00,A,A*72
$GNRMC,144552.00,A,4712.82792,N,01933.15603,E,0.464,,280424,,,A*6C
$GNVTG,,T,,M,0.464,N,0.860,K,A*35
$GNGGA,144552.00,4712.82792,N,01933.15603,E,1,07,1.42,120.3,M,38.7,M,,*42
$GNGSA,A,3,08,10,21,32,02,,,,,,,,3.30,1.42,2.97*1E
$GNGSA,A,3,67,68,,,,,,,,,,,3.30,1.42,2.97*18
$GPGSV,4,1,13,02,31,287,32,08,72,254,29,10,58,056,30,14,08,328,*7F
$GPGSV,4,2,13,16,07,196,,21,48,292,33,23,22,052,,24,00,043,*72
$GPGSV,4,3,13,27,54,164,23,32,39,120,28,33,26,224,31,36,35,164,31*78
$GPGSV,4,4,13,49,34,199,31*42
$GLGSV,3,1,11,66,10,025,,67,54,059,22,68,52,158,21,69,09,188,*6C
$GLGSV,3,2,11,73,09,257,,74,19,298,,75,09,350,,81,00,113,*66
$GLGSV,3,3,11,82,43,096,,83,70,014,,84,19,304,*5D
$GNGLL,4712.82792,N,01933.15603,E,144552.00,A,A*7B
$GNRMC,144553.00,A,4712.82840,N,01933.15617,E,0.272,,280424,,,A*69
$GNVTG,,T,,M,0.272,N,0.504,K,A*3B
$GNGGA,144553.00,4712.82840,N,01933.15617,E,1,07,1.42,120.8,M,38.7,M,,*4D
$GNGSA,A,3,08,10,21,32,02,,,,,,,,3.30,1.42,2.97*1E
$GNGSA,A,3,67,68,,,,,,,,,,,3.30,1.42,2.97*18
$GPGSV,3,1,12,02,31,287,32,08,72,254,28,10,58,056,31,14,08,328,*79
$GPGSV,3,2,12,16,07,196,,21,48,292,33,23,22,052,24,24,00,043,*72
$GPGSV,3,3,12,27,54,164,22,32,39,120,29,33,26,224,30,36,35,164,30*7E
$GLGSV,3,1,11,66,10,025,25,67,54,059,22,68,52,158,17,69,09,188,*6E
$GLGSV,3,2,11,73,09,257,,74,19,298,,75,09,350,,81,00,113,*66
$GLGSV,3,3,11,82,43,096,23,83,70,014,,84,19,304,*5C
$GNGLL,4712.82840,N,01933.15617,E,144553.00,A,A*7F
$GNRMC,144554.00,A,4712.82828,N,01933.15602,E,0.102,,280424,,,A*60
$GNVTG,,T,,M,0.102,N,0.189,K,A*3E
$GNGGA,144554.00,4712.82828,N,01933.15602,E,1,07,1.48,121.4,M,38.7,M,,*47
$GNGSA,A,3,08,27,21,32,02,,,,,,,,3.36,1.48,3.02*1B
$GNGSA,A,3,67,68,,,,,,,,,,,3.36,1.48,3.02*19
$GPGSV,3,1,11,02,31,287,33,08,72,254,33,10,58,056,,14,08,328,*73
$GPGSV,3,2,11,16,07,196,22,21,48,292,33,23,22,052,22,24,00,043,22*77
$GPGSV,3,3,11,27,54,164,34,32,39,120,30,36,35,164,30*41
$GLGSV,3,1,11,66,10,025,,67,54,059,22,68,52,158,27,69,09,188,*6A
$GLGSV,3,2,11,73,09,257,,74,19,298,,75,09,350,,81,00,113,*66
$GLGSV,3,3,11,82,43,096,27,83,70,014,,84,19,304,*58
$GNGLL,4712.82828,N,01933.15602,E,144554.00,A,A*72
$GNRMC,144555.00,A,4712.82875,N,01933.15622,E,0.943,,280424,,,A*66
$GNVTG,,T,,M,0.943,N,1.747,K,A*36
$GNGGA,144555.00,4712.82875,N,01933.15622,E,1,07,1.48,121.3,M,38.7,M,,*4B
$GNGSA,A,3,08,27,21,32,02,,,,,,,,3.36,1.48,3.02*1B
$GNGSA,A,3,67,68,,,,,,,,,,,3.36,1.48,3.02*19
$GPGSV,4,1,13,02,31,287,33,08,72,254,30,10,58,056,,14,08,328,*75
$GPGSV,4,2,13,16,07,196,,21,48,292,29,23,22,052,35,24,00,043,21*7C
$GPGSV,4,3,13,27,54,164,34,32,39,120,28,33,26,224,30,36,35,164,30*7E
$GPGSV,4,4,13,49,34,199,31*42
$GLGSV,3,1,11,66,10,025,,67,54,059,22,68,52,158,28,69,09,188,*65
$GLGSV,3,2,11,73,09,257,,74,19,298,,75,09,350,,81,00,113,*66
$GLGSV,3,3,11,82,43,096,,83,70,014,,84,19,304,*5D
$GNGLL,4712.82875,N,01933.15622,E,144555.00,A,A*79
$GNRMC,144556.00,A,4712.82886,N,01933.15560,E,1.605,,280424,,,A*60
$GNVTG,,T,,M,1.605,N,2.973,K,A*30
$GNGGA,144556.00,4712.82886,N,01933.15560,E,1,06,1.54,124.8,M,38.7,M,,*43
$GNGSA,A,3,08,27,32,02,,,,,,,,,3.41,1.54,3.05*12
$GNGSA,A,3,67,68,,,,,,,,,,,3.41,1.54,3.05*13
$GPGSV,4,1,13,02,31,287,33,08,72,254,29,10,58,056,,14,08,328,28*77
$GPGSV,4,2,13,16,07,196,21,21,48,292,26,23,22,052,,24,00,043,20*77
$GPGSV,4,3,13,27,54,164,33,32,39,120,29,33,26,224,31,36,35,164,31*78
$GPGSV,4,4,13,49,34,199,31*42
$GLGSV,3,1,11,66,10,025,25,67,54,059,23,68,52,158,29,69,09,188,*62
$GLGSV,3,2,11,73,09,257,,74,19,298,,75,09,350,,81,00,113,*66
$GLGSV,3,3,11,82,43,096,25,83,70,014,,84,19,304,*5A
$GNGLL,4712.82886,N,01933.15560,E,144556.00,A,A*73
$GNRMC,144557.00,A,4712.82882,N,01933.15413,E,2.522,261.52,280424,,,A*79
$GNVTG,261.52,T,,M,2.522,N,4.671,K,A*22
$GNGGA,144557.00,4712.82882,N,01933.15413,E,1,07,1.34,128.0,M,38.7,M,,*40
$GNGSA,A,3,08,10,27,32,02,,,,,,,,3.24,1.34,2.95*1E
$GNGSA,A,3,67,68,,,,,,,,,,,3.24,1.34,2.95*1E
$GPGSV,4,1,13,02,31,287,32,08,72,254,31,10,58,056,31,14,08,328,*77
$GPGSV,4,2,13,16,07,196,20,21,48,292,,23,22,052,23,24,00,043,*71
$GPGSV,4,3,13,27,54,164,34,32,39,120,30,33,26,224,31,36,35,164,30*76
$GPGSV,4,4,13,49,34,199,30*43
$GLGSV,3,1,11,66,10,025,32,67,54,059,26,68,52,158,28,69,09,188,*60
$GLGSV,3,2,11,73,09,257,,74,19,298,,75,09,350,,81,00,113,*66
$GLGSV,3,3,11,82,43,096,,83,70,014,,84,19,304,*5D
$GNGLL,4712.82882,N,01933.15413,E,144557.00,A,A*73
$GNRMC,144558.00,A,4712.82867,N,01933.15359,E,1.850,272.56,280424,,,A*79
$GNVTG,272.56,T,,M,1.850,N,3.427,K,A*29
$GNGGA,144558.00,4712.82867,N,01933.15359,E,1,06,1.54,135.4,M,38.7,M,,*42
$GNGSA,A,3,08,27,32,02,,,,,,,,,3.41,1.54,3.05*12
$GNGSA,A,3,67,68,,,,,,,,,,,3.41,1.54,3.05*13
$GPGSV,3,1,12,02,31,287,32,08,72,254,31,10,58,056,23,14,08,328,*72
$GPGSV,3,2,12,16,07,196,19,21,48,292,26,23,22,052,21,24,00,043,*7B
$GPGSV,3,3,12,27,54,164,33,32,39,120,31,33,26,224,30,36,35,164,31*76
$GLGSV,3,1,11,66,10,025,,67,54,059,27,68,52,158,29,69,09,188,*61
$GLGSV,3,2,11,73,09,257,,74,19,298,,75,09,350,,81,00,113,*66
$GLGSV,3,3,11,82,43,096,28,83,70,014,,84,19,304,*57
$GNGLL,4712.82867,N,01933.15359,E,144558.00,A,A*7E
$GNRMC,144559.00,A,4712.82872,N,01933.15382,E,0.645,,280424,,,A*6B
$GNVTG,,T,,M,0.645,N,1.194,K,A*37
$GNGGA,144559.00,4712.82872,N,01933.15382,E,1,10,1.37,139.3,M,38.7,M,,*48
$GNGSA,A,3,08,10,27,21,32,02,23,,,,,,3.25,1.37,2.95*1E
$GNGSA,A,3,67,68,82,,,,,,,,,,3.25,1.37,2.95*16
$GPGSV,3,1,12,02,31,287,32,08,72,254,32,10,58,056,27,14,08,328,*75
$GPGSV,3,2,12,16,07,196,,21,48,292,28,23,22,052,20,24,00,043,*7C
$GPGSV,3,3,12,27,54,164,36,32,39,120,31,33,26,224,30,36,35,164,30*72
$GLGSV,3,1,11,66,10,025,30,67,54,059,26,68,52,158,30,69,09,188,*6B
$GLGSV,3,2,11,73,09,257,,74,19,298,,75,09,350,,81,00,113,*66
$GLGSV,3,3,11,82,43,096,28,83,70,014,,84,19,304,*57
$GNGLL,4712.82872,N,01933.15382,E,144559.00,A,A*7D
$GNRMC,144600.00,A,4712.82873,N,01933.15448,E,0.953,,280424,,,A*6C
$GNVTG,,T,,M,0.953,N,1.764,K,A*36
$GNGGA,144600.00,4712.82873,N,01933.15448,E,1,09,1.22,143.4,M,38.7,M,,*41
$GNGSA,A,3,08,10,27,21,32,02,,,,,,,3.05,1.22,2.80*1D
$GNGSA,A,3,67,68,82,,,,,,,,,,3.05,1.22,2.80*14
$GPGSV,3,1,12,02,31,287,32,08,72,254,33,10,58,056,32,14,08,328,*70
$GPGSV,3,2,12,16,07,196,23,21,48,292,29,23,22,052,22,24,00,043,21*7D
$GPGSV,3,3,12,27,54,164,36,32,39,120,33,33,26,224,30,36,35,164,30*70
$GLGSV,3,1,11,66,10,025,22,67,54,059,26,68,52,158,29,69,09,188,*60
$GLGSV,3,2,11,73,09,257,,74,19,298,,75,09,350,,81,00,113,*66
$GLGSV,3,3,11,82,43,096,27,83,70,014,,84,19,304,*58
$GNGLL,4712.82873,N,01933.15448,E,144600.00,A,A*72
$GNRMC,144601.00,A,4712.82885,N,01933.15422,E,0.728,,280424,,,A*6A
$GNVTG,,T,,M,0.728,N,1.348,K,A*3E
$GNGGA,144601.00,4712.82885,N,01933.15422,E,1,09,1.22,145.9,M,38.7,M,,*4E
$GNGSA,A,3,08,10,27,21,32,02,,,,,,,3.06,1.22,2.80*1E
$GNGSA,A,3,67,68,82,,,,,,,,,,3.06,1.22,2.80*17
$GPGSV,3,1,12,02,31,287,27,08,72,254,33,10,58,056,32,14,08,328,*74
$GPGSV,3,2,12,16,07,196,,21,48,292,29,23,22,052,20,24,00,043,*7D
$GPGSV,3,3,12,27,54,164,35,32,39,120,32,33,26,224,30,36,35,164,30*72
$GLGSV,3,1,11,66,10,025,,67,54,059,26,68,52,158,29,69,09,188,*60
$GLGSV,3,2,11,73,09,257,,74,19,298,,75,09,350,,81,00,113,*66
$GLGSV,3,3,11,82,43,096,27,83,70,014,,84,19,304,*58
$GNGLL,4712.82885,N,01933.15422,E,144601.00,A,A*76
$GNRMC,144602.00,A,4712.82875,N,01933.15389,E,0.345,,280424,,,A*6F
$GNVTG,,T,,M,0.345,N,0.639,K,A*33
$GNGGA,144602.00,4712.82875,N,01933.15389,E,1,09,1.22,144.5,M,38.7,M,,*49
$GNGSA,A,3,08,10,27,21,32,02,,,,,,,3.06,1.22,2.80*1E
$GNGSA,A,3,67,68,82,,,,,,,,,,3.06,1.22,2.80*17
$GPGSV,4,1,13,02,31,287,32,08,72,254,32,10,58,056,32,14,08,328,*77
$GPGSV,4,2,13,16,07,196,22,21,48,292,29,23,22,052,30,24,00,043,21*79
$GPGSV,4,3,13,27,54,164,35,32,39,120,32,33,26,224,31,36,35,164,30*75
$GPGSV,4,4,13,49,34,199,29*4B
$GLGSV,3,1,11,66,10,025,20,67,54,059,26,68,52,158,29,69,09,188,*62
$GLGSV,3,2,11,73,09,257,,74,19,298,,75,09,350,,81,00,113,*66
$GLGSV,3,3,11,82,43,096,28,83,70,014,,84,19,304,*57
$GNGLL,4712.82875,N,01933.15389,E,144602.00,A,A*7C
$GNRMC,144603.00,A,4712.82898,N,01933.15429,E,1.116,,280424,,,A*65
$GNVTG,,T,,M,1.116,N,2.067,K,A*39
$GNGGA,144603.00,4712.82898,N,01933.15429,E,1,09,1.22,151.0,M,38.7,M,,*47
$GNGSA,A,3,08,10,27,21,32,02,,,,,,,3.06,1.22,2.80*1E
$GNGSA,A,3,67,68,82,,,,,,,,,,3.06,1.22,2.80*17
$GPGSV,4,1,13,02,31,287,32,08,72,254,32,10,58,056,31,14,08,328,*74
$GPGSV,4,2,13,16,07,196,24,21,48,292,32,23,22,052,,24,00,043,*75
$GPGSV,4,3,13,27,54,164,33,32,39,120,26,33,26,224,31,36,35,164,30*76
$GPGSV,4,4,13,49,34,199,30*43
$GLGSV,3,1,11,66,10,025,,67,54,059,26,68,52,158,29,69,09,188,*60
$GLGSV,3,2,11,73,09,257,23,74,19,298,,75,09,350,,81,00,113,*67
$GLGSV,3,3,11,82,43,096,28,83,70,014,,84,19,304,*57
$GNGLL,4712.82898,N,01933.15429,E,144603.00,A,A*73
$GNRMC,144604.00,A,4712.82950,N,01933.15406,E,1.544,,280424,,,A*69
$GNVTG,,T,,M,1.544,N,2.860,K,A*35
$GNGGA,144604.00,4712.82950,N,01933.15406,E,1,07,1.44,149.0,M,38.7,M,,*4F
$GNGSA,A,3,08,27,32,02,,,,,,,,,3.30,1.44,2.97*1F
$GNGSA,A,3,67,68,82,,,,,,,,,,3.30,1.44,2.97*14
$GPGSV,4,1,13,02,31,287,32,08,72,254,31,10,58,056,19,14,08,328,*7D
$GPGSV,4,2,13,16,07,196,,21,48,292,,23,22,052,,24,00,043,*72
$GPGSV,4,3,13,27,54,164,29,32,39,120,28,33,26,224,31,36,35,164,30*73
$GPGSV,4,4,13,49,34,199,31*42
$GLGSV,3,1,11,66,09,025,27,67,54,059,25,68,52,158,26,69,09,188,*61
$GLGSV,3,2,11,73,09,257,,74,19,298,,75,09,350,,81,00,113,*66
$GLGSV,3,3,11,82,43,096,27,83,70,014,,84,19,304,*58
$GNGLL,4712.82950,N,01933.15406,E,144604.00,A,A*7C
$GNRMC,144605.00,A,4712.82951,N,01933.15385,E,0.574,,280424,,,A*67
$GNVTG,,T,,M,0.574,N,1.063,K,A*3F
$GNGGA,144605.00,4712.82951,N,01933.15385,E,1,08,1.37,151.5,M,38.7,M,,*44
$GNGSA,A,3,08,27,21,32,02,,,,,,,,3.26,1.37,2.95*1D
$GNGSA,A,3,67,68,82,,,,,,,,,,3.26,1.37,2.95*15
$GPGSV,4,1,13,02,31,287,25,08,72,254,35,10,58,056,30,14,08,328,*74
$GPGSV,4,2,13,16,07,196,,21,48,292,33,23,22,052,25,24,00,043,21*76
$GPGSV,4,3,13,27,54,164,34,32,39,120,28,33,26,224,30,36,35,164,30*7E
$GPGSV,4,4,13,49,34,199,31*42
$GLGSV,3,1,11,66,09,025,,67,54,058,25,68,52,158,26,69,09,188,*65
$GLGSV,3,2,11,73,09,257,,74,19,298,,75,09,350,,81,00,113,*66
$GLGSV,3,3,11,82,43,096,26,83,70,014,,84,19,304,*59
$GNGLL,4712.82951,N,01933.15385,E,144605.00,A,A*70
$GNRMC,144606.00,A,4712.82950,N,01933.15370,E,0.305,,280424,,,A*6F
$GNVTG,,T,,M,0.305,N,0.566,K,A*3E
$GNGGA,144606.00,4712.82950,N,01933.15370,E,1,06,1.62,151.3,M,38.7,M,,*44
$GNGSA,A,3,08,27,21,02,,,,,,,,,4.21,1.62,3.88*11
$GNGSA,A,3,67,68,,,,,,,,,,,4.21,1.62,3.88*12
$GPGSV,4,1,13,02,31,287,31,08,72,254,34,10,58,056,29,14,08,328,*78
$GPGSV,4,2,13,16,07,196,24,21,48,292,32,23,22,052,,24,00,043,*75
$GPGSV,4,3,13,27,54,164,31,32,39,120,,33,26,224,30,36,35,164,30*71
$GPGSV,4,4,13,49,34,199,31*42
$GLGSV,3,1,11,66,09,025,23,67,54,058,23,68,52,158,27,69,09,188,*63
$GLGSV,3,2,11,73,09,257,,74,19,298,,75,09,350,,81,00,113,*66
$GLGSV,3,3,11,82,43,096,,83,70,014,,84,19,304,*5D
$GNGLL,4712.82950,N,01933.15370,E,144606.00,A,A*78
$GNRMC,144607.00,A,4712.82932,N,01933.15408,E,0.894,,280424,,,A*61
$GNVTG,,T,,M,0.894,N,1.656,K,A*3C
$GNGGA,144607.00,4712.82932,N,01933.15408,E,1,06,1.62,149.9,M,38.7,M,,*4A
$GNGSA,A,3,08,27,21,02,,,,,,,,,4.21,1.62,3.88*11
$GNGSA,A,3,67,68,,,,,,,,,,,4.21,1.62,3.88*12
$GPGSV,4,1,13,02,31,287,30,08,72,254,34,10,58,056,,14,08,328,*72
$GPGSV,4,2,13,16,07,196,,21,48,292,31,23,22,052,34,24,00,043,*77
$GPGSV,4,3,13,27,54,164,34,32,39,120,32,33,26,224,30,36,35,164,30*75
$GPGSV,4,4,13,49,34,199,30*43
$GLGSV,3,1,11,66,09,025,22,67,54,058,22,68,52,158,27,69,09,188,*63
$GLGSV,3,2,11,73,09,257,,74,19,298,,75,09,350,,81,00,113,*66
$GLGSV,3,3,11,82,43,096,24,83,70,014,,84,19,304,*5B
$GNGLL,4712.82932,N,01933.15408,E,144607.00,A,A*75
$GNRMC,144608.00,A,4712.82998,N,01933.15446,E,1.499,,280424,,,A*64
$GNVTG,,T,,M,1.499,N,2.777,K,A*3D
$GNGGA,144608.00,4712.82998,N,01933.15446,E,1,06,1.62,150.1,M,38.7,M,,*4F
$GNGSA,A,3,08,27,21,02,,,,,,,,,4.21,1.62,3.88*11
$GNGSA,A,3,67,68,,,,,,,,,,,4.21,1.62,3.88*12
$GPGSV,4,1,13,02,31,287,29,08,72,254,34,10,58,056,20,14,08,328,*78
$GPGSV,4,2,13,16,07,196,21,21,48,292,27,23,22,052,,24,00,043,*74
$GPGSV,4,3,13,27,54,164,34,32,39,120,36,33,26,224,30,36,35,164,30*71
$GPGSV,4,4,13,49,34,199,30*43
$GLGSV,3,1,11,66,09,025,25,67,54,058,21,68,52,158,26,69,09,188,*66
$GLGSV,3,2,11,73,09,257,,74,19,298,,75,09,350,,81,00,113,*66
$GLGSV,3,3,11,82,43,096,22,83,70,014,,84,19,304,*5D
$GNGLL,4712.82998,N,01933.15446,E,144608.00,A,A*70
$GNRMC,144609.00,A,4712.83009,N,01933.15468,E,1.115,,280424,,,A*68
$GNVTG,,T,,M,1.115,N,2.065,K,A*38
$GNGGA,144609.00,4712.83009,N,01933.15468,E,1,06,1.62,151.1,M,38.7,M,,*43
$GNGSA,A,3,08,27,21,02,,,,,,,,,4.21,1.62,3.88*11
$GNGSA,A,3,67,68,,,,,,,,,,,4.21,1.62,3.88*12
$GPGSV,3,1,12,02,31,287,29,08,72,254,31,10,58,056,35,14,08,328,*7F
$GPGSV,3,2,12,16,07,196,,21,48,292,31,23,22,052,,24,00,043,*76
$GPGSV,3,3,12,27,54,164,34,32,39,120,34,33,26,224,30,36,35,164,30*75
$GLGSV,3,1,11,66,09,025,,67,54,058,22,68,52,158,27,69,09,188,*63
$GLGSV,3,2,11,73,09,257,,74,19,298,,75,09,350,,81,00,113,*66
$GLGSV,3,3,11,82,43,096,23,83,70,014,,84,19,304,*5C
$GNGLL,4712.83009,N,01933.15468,E,144609.00,A,A*7D
$GNRMC,144610.00,A,4712.82942,N,01933.15373,E,0.188,,280424,,,A*6F
$GNVTG,,T,,M,0.188,N,0.347,K,A*3C
$GNGGA,144610.00,4712.82942,N,01933.15373,E,1,06,1.53,150.8,M,38.7,M,,*4B
$GNGSA,A,3,08,27,02,,,,,,,,,,3.75,1.53,3.42*10
$GNGSA,A,3,67,68,82,,,,,,,,,,3.75,1.53,3.42*1A
$GPGSV,3,1,12,02,31,287,35,08,72,254,34,10,58,056,24,14,08,328,25*70
$GPGSV,3,2,12,16,07,196,15,21,48,292,25,23,22,052,,24,00,043,22*77
$GPGSV,3,3,12,27,54,164,40,32,39,120,,33,26,224,31,36,35,164,30*70
$GLGSV,3,1,11,66,09,025,,67,54,058,24,68,52,158,38,69,09,188,*6B
$GLGSV,3,2,11,73,09,257,,74,19,298,,75,09,350,,81,00,113,*66
$GLGSV,3,3,11,82,43,096,23,83,70,014,,84,19,304,*5C
$GNGLL,4712.82942,N,01933.15373,E,144610.00,A,A*7F
$GNRMC,144611.00,A,4712.82950,N,01933.15369,E,0.379,,280424,,,A*6A
$GNVTG,,T,,M,0.379,N,0.701,K,A*36
$GNGGA,144611.00,4712.82950,N,01933.15369,E,1,05,1.84,150.4,M,38.7,M,,*47
$GNGSA,A,3,27,02,,,,,,,,,,,6.71,1.84,6.46*12
$GNGSA,A,3,67,68,82,,,,,,,,,,6.71,1.84,6.46*10
$GPGSV,3,1,12,02,31,287,33,08,72,254,,10,58,056,,14,08,328,24*76
$GPGSV,3,2,12,16,07,196,16,21,48,292,,23,22,052,,24,00,043,*73
$GPGSV,3,3,12,27,54,164,29,32,39,120,27,33,26,224,30,36,35,164,29*73
$GLGSV,3,1,11,66,09,025,,67,54,058,26,68,52,158,18,69,09,188,*6B
$GLGSV,3,2,11,73,08,256,,74,19,298,,75,09,350,,81,00,113,*66
$GLGSV,3,3,11,82,43,096,24,83,70,014,,84,19,304,*5B
$GNGLL,4712.82950,N,01933.15369,E,144611.00,A,A*76
$GNRMC,144612.00,V,,,,,,,280424,,,N*6F
$GNVTG,,,,,,,,,N*2E
$GNGGA,144612.00,,,,,0,06,17.72,,,,,,*79
$GNGSA,A,1,10,27,32,,,,,,,,,,44.71,17.72,41.05*2E
$GNGSA,A,1,67,68,82,,,,,,,,,,44.71,17.72,41.05*2E
$GPGSV,3,1,11,02,31,287,33,08,72,254,,10,58,056,30,14,08,328,22*70
$GPGSV,3,2,11,16,07,196,23,21,48,292,18,23,22,052,20,24,00,043,19*75
$GPGSV,3,3,11,27,54,164,32,32,39,120,30,36,35,164,29*4F
$GLGSV,3,1,11,66,09,025,,67,54,058,34,68,52,158,33,69,09,188,*61
$GLGSV,3,2,11,73,08,256,,74,18,298,,75,09,350,,81,00,113,*67
$GLGSV,3,3,11,82,43,096,24,83,70,014,25,84,19,304,*5C
$GNGLL,,,,,144612.00,V,N*50
$GNRMC,144613.00,A,4712.82912,N,01933.15398,E,0.705,,280424,,,A*6F
$GNVTG,,T,,M,0.705,N,1.306,K,A*3B
$GNGGA,144613.00,4712.82912,N,01933.15398,E,1,07,1.38,135.2,M,38.7,M,,*4D
$GNGSA,A,3,10,27,32,02,,,,,,,,,4.14,1.38,3.90*1A
$GNGSA,A,3,67,68,82,,,,,,,,,,4.14,1.38,3.90*18
$GPGSV,3,1,11,02,31,287,33,08,72,254,,10,58,056,29,14,08,328,20*7A
$GPGSV,3,2,11,16,07,196,20,21,48,292,16,23,22,052,19,24,00,043,18*73
$GPGSV,3,3,11,27,54,164,25,32,39,120,30,36,35,164,27*47
$GLGSV,3,1,11,66,09,025,,67,54,058,34,68,52,158,27,69,09,188,*64
$GLGSV,3,2,11,73,08,256,,74,18,298,,75,09,349,,81,00,113,*6F
$GLGSV,3,3,11,82,43,096,22,83,70,014,,84,19,304,*5D
$GNGLL,4712.82912,N,01933.15398,E,144613.00,A,A*7C
$GNRMC,144614.00,A,4712.82873,N,01933.15365,E,0.398,,280424,,,A*6C
$GNVTG,,T,,M,0.398,N,0.738,K,A*33
$GNGGA,144614.00,4712.82873,N,01933.15365,E,1,10,1.17,136.4,M,38.7,M,,*40
$GNGSA,A,3,08,10,27,32,02,23,,,,,,,2.49,1.17,2.19*10
$GNGSA,A,3,83,67,68,82,,,,,,,,,2.49,1.17,2.19*10
$GPGSV,3,1,11,02,31,287,34,08,72,254,35,10,58,056,33,14,08,328,18*7B
$GPGSV,3,2,11,16,07,196,19,21,48,292,16,23,22,052,22,24,00,043,16*7F
$GPGSV,3,3,11,27,54,164,31,32,39,120,31,36,35,164,27*43
$GLGSV,3,1,11,66,09,025,,67,54,058,33,68,52,158,32,69,09,188,*67
$GLGSV,3,2,11,73,08,256,,74,18,298,,75,09,349,,81,00,113,*6F
$GLGSV,3,3,11,82,43,096,20,83,70,014,27,84,19,304,*5A
$GNGLL,4712.82873,N,01933.15365,E,144614.00,A,A*7F
$GNRMC,144615.00,A,4712.82839,N,01933.15335,E,0.595,,280424,,,A*6D
$GNVTG,,T,,M,0.595,N,1.102,K,A*36
$GNGGA,144615.00,4712.82839,N,01933.15335,E,1,10,1.12,137.4,M,38.7,M,,*4E
$GNGSA,A,3,10,27,21,32,02,23,,,,,,,2.33,1.12,2.04*1F
$GNGSA,A,3,83,67,68,82,,,,,,,,,2.33,1.12,2.04*14
$GPGSV,3,1,12,02,31,287,30,08,72,254,23,10,58,056,27,14,08,328,16*70
$GPGSV,3,2,12,16,07,196,17,21,48,292,16,23,22,052,22,24,00,043,13*77
$GPGSV,3,3,12,27,54,164,23,32,39,120,28,36,35,164,28,49,34,199,30*7C
$GLGSV,3,1,11,66,09,025,,67,54,058,28,68,52,158,24,69,09,188,*6A
$GLGSV,3,2,11,73,08,256,,74,18,298,,75,09,349,,81,00,113,*6F
$GLGSV,3,3,11,82,43,096,20,83,70,014,25,84,19,304,*58
$GNGLL,4712.82839,N,01933.15335,E,144615.00,A,A*75
$GNRMC,144616.00,A,4712.82808,N,01933.15361,E,1.086,,280424,,,A*6B
$GNVTG,,T,,M,1.086,N,2.012,K,A*33
$GNGGA,144616.00,4712.82808,N,01933.15361,E,1,10,1.05,138.8,M,38.7,M,,*4B
$GNGSA,A,3,10,27,21,32,02,23,,,,,,,2.29,1.05,2.04*12
$GNGSA,A,3,83,67,68,82,,,,,,,,,2.29,1.05,2.04*19
$GPGSV,3,1,12,02,31,287,29,08,72,254,21,10,58,056,26,14,08,328,16*7B
$GPGSV,3,2,12,16,07,196,,21,48,292,30,23,22,052,21,24,00,043,16*73
$GPGSV,3,3,12,27,54,164,24,32,39,120,29,36,35,164,29,49,34,199,30*7B
$GLGSV,3,1,11,66,09,025,,67,54,058,27,68,52,158,24,69,09,188,*65
$GLGSV,3,2,11,73,08,256,,74,18,298,,75,09,349,,81,00,113,*6F
$GLGSV,3,3,11,82,43,096,21,83,70,014,21,84,19,304,*5D
$GNGLL,4712.82808,N,01933.15361,E,144616.00,A,A*75
$GNRMC,144617.00,A,4712.82773,N,01933.15334,E,0.599,,280424,,,A*63
$GNVTG,,T,,M,0.599,N,1.109,K,A*31
$GNGGA,144617.00,4712.82773,N,01933.15334,E,1,09,1.07,140.1,M,38.7,M,,*45
$GNGSA,A,3,10,27,21,32,02,23,,,,,,,2.31,1.07,2.04*19
$GNGSA,A,3,83,67,68,,,,,,,,,,2.31,1.07,2.04*18
$GPGSV,3,1,11,02,31,287,33,08,72,254,20,10,58,056,25,14,08,328,*76
$GPGSV,3,2,11,16,07,196,20,21,48,292,34,23,22,052,21,24,00,043,17*77
$GPGSV,3,3,11,27,54,164,30,32,39,120,29,49,34,199,30*46
$GLGSV,3,1,11,66,09,025,,67,54,058,27,68,52,158,23,69,09,188,*62
$GLGSV,3,2,11,73,08,256,,74,18,298,,75,09,349,,81,00,113,*6F
$GLGSV,3,3,11,82,43,096,,83,70,014,20,84,19,304,*5F
$GNGLL,4712.82773,N,01933.15334,E,144617.00,A,A*77
$GNRMC,144618.00,A,4712.82777,N,01933.15318,E,0.196,,280424,,,A*6D
$GNVTG,,T,,M,0.196,N,0.362,K,A*34
$GNGGA,144618.00,4712.82777,N,01933.15318,E,1,09,1.07,141.1,M,38.7,M,,*41
$GNGSA,A,3,10,27,21,32,02,23,,,,,,,2.31,1.07,2.04*19
$GNGSA,A,3,83,67,68,,,,,,,,,,2.31,1.07,2.04*18
$GPGSV,3,1,11,02,31,287,27,08,72,254,,10,58,056,27,14,08,328,*73
$GPGSV,3,2,11,16,07,196,,21,48,292,34,23,22,052,23,24,00,043,18*78
$GPGSV,3,3,11,27,54,164,26,32,39,120,29,49,34,199,31*40
$GLGSV,3,1,11,66,09,025,,67,54,058,25,68,52,158,25,69,09,188,*66
$GLGSV,3,2,11,73,08,256,,74,18,298,,75,09,349,,81,00,113,*6F
$GLGSV,3,3,11,82,43,096,21,83,70,014,20,84,19,304,*5C
$GNGLL,4712.82777,N,01933.15318,E,144618.00,A,A*72
$GNRMC,144619.00,A,4712.82733,N,01933.15311,E,0.873,,280424,,,A*67
$GNVTG,,T,,M,0.873,N,1.617,K,A*30
$GNGGA,144619.00,4712.82733,N,01933.15311,E,1,08,1.13,142.0,M,38.7,M,,*4F
$GNGSA,A,3,27,21,32,02,23,,,,,,,,2.47,1.13,2.20*1A
$GNGSA,A,3,83,67,68,,,,,,,,,,2.47,1.13,2.20*1A
$GPGSV,4,1,13,02,31,287,27,08,72,254,,10,58,056,,14,08,328,*73
$GPGSV,4,2,13,16,07,196,21,21,48,292,26,23,22,052,21,24,00,043,18*7F
$GPGSV,4,3,13,27,54,164,26,32,39,120,17,33,26,224,29,36,35,164,30*79
$GPGSV,4,4,13,49,34,199,31*42
$GLGSV,3,1,10,66,09,025,23,67,54,058,24,68,52,158,22,69,09,188,*60
$GLGSV,3,2,10,73,08,256,,74,18,298,,75,09,349,,82,43,096,21*65
$GLGSV,3,3,10,83,70,014,17,84,19,304,*68
$GNGLL,4712.82733,N,01933.15311,E,144619.00,A,A*7A
$GNRMC,144620.00,A,4712.82804,N,01933.15255,E,1.557,,280424,,,A*6D
$GNVTG,,T,,M,1.557,N,2.883,K,A*3A
$GNGGA,144620.00,4712.82804,N,01933.15255,E,1,08,1.13,142.8,M,38.7,M,,*47
$GNGSA,A,3,27,21,32,02,23,,,,,,,,2.47,1.13,2.20*1A
$GNGSA,A,3,83,67,68,,,,,,,,,,2.47,1.13,2.20*1A
$GPGSV,4,1,13,02,31,287,26,08,72,254,,10,58,056,,14,08,328,*72
$GPGSV,4,2,13,16,07,196,,21,48,292,28,23,22,052,21,24,00,043,17*7D
$GPGSV,4,3,13,27,54,164,24,32,39,120,19,33,26,224,30,36,35,164,29*75
$GPGSV,4,4,13,49,34,199,31*42
$GLGSV,3,1,10,66,09,025,24,67,54,058,25,68,52,158,21,69,09,188,*65
$GLGSV,3,2,10,73,08,256,,74,18,298,,75,09,349,,82,43,096,21*65
$GLGSV,3,3,10,83,70,014,10,84,19,304,*6F
$GNGLL,4712.82804,N,01933.15255,E,144620.00,A,A*7A
$GNRMC,144621.00,A,4712.82815,N,01933.15232,E,1.329,,280424,,,A*62
$GNVTG,,T,,M,1.329,N,2.461,K,A*35
$GNGGA,144621.00,4712.82815,N,01933.15232,E,1,04,1.87,143.6,M,38.7,M,,*49
$GNGSA,A,3,21,23,,,,,,,,,,,4.33,1.87,3.90*1E
$GNGSA,A,3,67,68,,,,,,,,,,,4.33,1.87,3.90*13
$GPGSV,3,1,11,02,31,287,25,08,72,254,25,10,58,056,26,14,08,328,21*74
$GPGSV,3,2,11,16,07,196,22,21,48,292,29,23,22,052,21,24,00,043,*7F
$GPGSV,3,3,11,27,54,164,26,32,39,120,15,49,34,199,31*4F
$GLGSV,3,1,10,66,09,025,26,67,54,058,25,68,52,158,19,69,09,188,*6C
$GLGSV,3,2,10,73,08,256,,74,18,298,,75,09,349,,82,43,096,20*64
$GLGSV,3,3,10,83,70,016,07,84,19,304,*6B
$GNGLL,4712.82815,N,01933.15232,E,144621.00,A,A*7A
$GNRMC,144622.00,A,4712.82787,N,01933.15190,E,0.805,,280424,,,A*6A
$GNVTG,,T,,M,0.805,N,1.490,K,A*3C
$GNGGA,144622.00,4712.82787,N,01933.15190,E,1,06,1.67,144.4,M,38.7,M,,*4C
$GNGSA,A,3,08,10,21,23,,,,,,,,,3.37,1.67,2.92*19
$GNGSA,A,3,67,68,,,,,,,,,,,3.37,1.67,2.92*1D
$GPGSV,3,1,12,02,31,287,24,08,72,254,32,10,58,056,26,14,08,328,*73
$GPGSV,3,2,12,16,07,196,,21,48,292,29,23,22,052,21,24,00,043,*7C
$GPGSV,3,3,12,27,54,164,20,32,39,120,,33,26,224,31,49,34,199,31*7C
$GLGSV,3,1,10,66,09,025,,67,54,058,25,68,52,158,19,69,09,188,*68
$GLGSV,3,2,10,73,08,256,,74,18,298,,75,09,349,,82,43,096,*66
$GLGSV,3,3,10,83,70,016,07,84,19,305,*6A
$GNGLL,4712.82787,N,01933.15190,E,144622.00,A,A*76
$GNRMC,144623.00,A,4712.82750,N,01933.15172,E,0.371,,280424,,,A*65
$GNVTG,,T,,M,0.371,N,0.688,K,A*3E
$GNGGA,144623.00,4712.82750,N,01933.15172,E,1,06,1.67,145.2,M,38.7,M,,*4C
$GNGSA,A,3,08,10,21,23,,,,,,,,,3.37,1.67,2.92*19
$GNGSA,A,3,67,68,,,,,,,,,,,3.37,1.67,2.92*1D
$GPGSV,3,1,12,02,31,287,36,08,72,254,32,10,58,056,27,14,08,328,36*74
$GPGSV,3,2,12,16,07,196,,21,48,292,30,23,22,052,21,24,00,043,22*74
$GPGSV,3,3,12,27,54,164,36,32,39,120,28,33,26,224,29,49,34,199,31*78
$GLGSV,3,1,10,66,09,025,,67,54,058,25,68,52,158,18,69,09,188,*69
$GLGSV,3,2,10,73,08,256,,74,18,298,,75,09,349,,82,43,096,22*66
$GLGSV,3,3,10,83,70,016,07,84,19,305,*6A
$GNGLL,4712.82750,N,01933.15172,E,144623.00,A,A*71
$GNRMC,144624.00,A,4712.82823,N,01933.15184,E,1.091,,280424,,,A*6C
$GNVTG,,T,,M,1.091,N,2.021,K,A*35
$GNGGA,144624.00,4712.82823,N,01933.15184,E,1,05,1.69,145.3,M,38.7,M,,*45
$GNGSA,A,3,08,10,21,,,,,,,,,,6.92,1.69,6.71*15
$GNGSA,A,3,67,68,,,,,,,,,,,6.92,1.69,6.71*10
$GPGSV,3,1,11,02,31,287,,08,72,254,31,10,58,056,27,14,08,328,20*76
$GPGSV,3,2,11,16,07,196,,21,48,292,31,23,22,052,,24,00,043,*75
$GPGSV,3,3,11,27,54,164,30,32,39,120,29,49,34,199,31*47
$GLGSV,3,1,10,66,09,025,,67,54,058,26,68,52,158,18,69,09,188,*6A
$GLGSV,3,2,10,73,08,256,,74,18,298,,75,09,349,,82,43,096,*66
$GLGSV,3,3,10,83,70,016,07,84,19,305,*6A
$GNGLL,4712.82823,N,01933.15184,E,144624.00,A,A*74
$GNRMC,144625.00,A,4712.82797,N,01933.15194,E,0.435,,280424,,,A*67
$GNVTG,,T,,M,0.435,N,0.806,K,A*31
$GNGGA,144625.00,4712.82797,N,01933.15194,E,1,05,1.69,145.6,M,38.7,M,,*40
$GNGSA,A,3,08,10,21,,,,,,,,,,6.92,1.69,6.71*15
$GNGSA,A,3,67,68,,,,,,,,,,,6.92,1.69,6.71*10
$GPGSV,3,1,11,02,31,287,34,08,72,254,31,10,58,056,27,14,08,328,*73
$GPGSV,3,2,11,16,07,196,,21,48,292,31,23,22,052,,24,00,043,23*74
$GPGSV,3,3,11,27,54,164,20,32,39,120,26,49,34,199,31*49
$GLGSV,3,1,10,66,09,025,,67,54,058,26,68,52,158,18,69,09,188,*6A
$GLGSV,3,2,10,73,08,256,,74,18,298,,75,09,349,,82,43,096,22*66
$GLGSV,3,3,10,83,70,016,11,84,19,305,*6D
$GNGLL,4712.82797,N,01933.15194,E,144625.00,A,A*74
$GNRMC,144626.00,V,,,,,,,280424,,,N*68
$GNVTG,,,,,,,,,N*2E
$GNGGA,144626.00,,,,,0,04,2.83,,,,,,*46
$GNGSA,A,1,10,21,,,,,,,,,,,32.32,2.83,32.19*1C
$GNGSA,A,1,67,68,,,,,,,,,,,32.32,2.83,32.19*11
$GPGSV,4,1,13,02,31,287,31,08,72,254,,10,58,056,27,14,08,328,*71
$GPGSV,4,2,13,16,07,196,25,21,48,292,31,23,22,052,20,24,00,043,*75
$GPGSV,4,3,13,27,54,164,19,32,39,120,21,33,26,224,30,36,35,164,30*78
$GPGSV,4,4,13,49,34,199,31*42
$GLGSV,3,1,10,66,09,025,21,67,54,058,26,68,52,158,18,69,09,188,*69
