$GNRMC,143257.00,A,4712.82720,N,01933.15625,E,0.234,,280424,,,A*67
$GNVTG,,T,,M,0.234,N,0.434,K,A*3B
$GNGGA,143257.00,4712.82720,N,01933.15625,E,1,11,0.98,147.7,M,38.7,M,,*4E
$GNGSA,A,3,08,10,27,21,32,23,02,,,,,,1.95,0.98,1.69*13
$GNGSA,A,3,67,82,68,66,,,,,,,,,1.95,0.98,1.69*1B
$GPGSV,3,1,09,02,27,284,24,08,70,273,19,10,64,061,34,14,05,332,*7D
$GPGSV,3,2,09,16,12,198,,21,43,288,28,23,27,051,38,27,61,164,40*77
$GPGSV,3,3,09,32,34,126,36*46
$GLGSV,3,1,11,66,15,027,29,67,57,070,32,68,45,161,30,69,03,187,*60
$GLGSV,3,2,11,73,13,261,,74,20,305,,75,06,355,28,81,04,108,16*6E
$GLGSV,3,3,11,82,48,088,38,83,67,357,,84,14,300,*59
$GNGLL,4712.82720,N,01933.15625,E,143257.00,A,A*73
$GNRMC,143258.00,A,4712.82722,N,01933.15634,E,0.053,,280424,,,A*69
$GNVTG,,T,,M,0.053,N,0.099,K,A*3B
$GNGGA,143258.00,4712.82722,N,01933.15634,E,1,11,0.98,147.8,M,38.7,M,,*4C
$GNGSA,A,3,08,10,27,21,32,23,02,,,,,,1.95,0.98,1.69*13
$GNGSA,A,3,67,82,68,66,,,,,,,,,1.95,0.98,1.69*1B
$GPGSV,3,1,09,02,27,284,24,08,70,273,23,10,64,061,33,14,05,332,*73
$GPGSV,3,2,09,16,12,198,,21,43,288,32,23,27,051,38,27,61,164,40*7C
$GPGSV,3,3,09,32,34,126,36*46
$GLGSV,3,1,11,66,15,027,30,67,57,070,29,68,45,161,29,69,03,187,*6A
$GLGSV,3,2,11,73,13,261,,74,20,305,,75,06,355,27,81,04,108,15*62
$GLGSV,3,3,11,82,48,088,40,83,67,357,,84,14,300,*56
$GNGLL,4712.82722,N,01933.15634,E,143258.00,A,A*7E
$GNRMC,143259.00,A,4712.82726,N,01933.15646,E,0.098,,280424,,,A*6E
$GNVTG,,T,,M,0.098,N,0.182,K,A*37
$GNGGA,143259.00,4712.82726,N,01933.15646,E,1,11,0.98,148.0,M,38.7,M,,*4B
$GNGSA,A,3,08,10,27,21,32,23,02,,,,,,1.95,0.98,1.69*13
$GNGSA,A,3,67,82,68,66,,,,,,,,,1.95,0.98,1.69*1B
$GPGSV,3,1,09,02,27,284,23,08,70,273,25,10,64,061,32,14,05,332,*73
$GPGSV,3,2,09,16,12,198,,21,43,288,32,23,27,051,38,27,61,164,39*72
$GPGSV,3,3,09,32,34,126,37*47
$GLGSV,3,1,11,66,15,027,31,67,57,070,30,68,45,161,29,69,03,187,*63
$GLGSV,3,2,11,73,13,261,,74,20,305,,75,06,355,27,81,04,108,15*62
$GLGSV,3,3,11,82,48,088,40,83,67,357,,84,14,300,*56
$GNGLL,4712.82726,N,01933.15646,E,143259.00,A,A*7E
$GNRMC,143300.00,A,4712.82734,N,01933.15654,E,0.153,,280424,,,A*65
$GNVTG,,T,,M,0.153,N,0.283,K,A*33
$GNGGA,143300.00,4712.82734,N,01933.15654,E,1,11,0.98,148.2,M,38.7,M,,*44
$GNGSA,A,3,08,10,27,21,32,23,02,,,,,,1.95,0.98,1.69*13
$GNGSA,A,3,67,82,68,66,,,,,,,,,1.95,0.98,1.69*1B
$GPGSV,3,1,09,02,27,284,23,08,70,272,25,10,64,061,26,14,05,332,*77
$GPGSV,3,2,09,16,12,198,,21,43,288,32,23,27,051,39,27,61,164,39*73
$GPGSV,3,3,09,32,34,126,31*41
$GLGSV,3,1,11,66,15,027,25,67,57,070,31,68,45,161,34,69,03,187,*6B
$GLGSV,3,2,11,73,13,261,,74,20,305,,75,06,355,27,81,04,108,14*63
$GLGSV,3,3,11,82,48,088,40,83,67,357,,84,14,300,*56
$GNGLL,4712.82734,N,01933.15654,E,143300.00,A,A*73
$GNRMC,143301.00,A,4712.82733,N,01933.15663,E,0.073,,280424,,,A*64
$GNVTG,,T,,M,0.073,N,0.134,K,A*3F
$GNGGA,143301.00,4712.82733,N,01933.15663,E,1,11,0.98,148.1,M,38.7,M,,*45
$GNGSA,A,3,08,10,27,21,32,23,02,,,,,,1.96,0.98,1.69*10
$GNGSA,A,3,67,82,68,66,,,,,,,,,1.96,0.98,1.69*18
$GPGSV,3,1,09,02,27,284,20,08,70,272,36,10,64,061,34,14,05,332,*75
$GPGSV,3,2,09,16,12,198,17,21,43,288,38,23,27,051,29,27,61,164,40*70
$GPGSV,3,3,09,32,34,126,34*44
$GLGSV,3,1,11,66,15,027,25,67,57,070,32,68,45,161,23,69,03,187,*6E
$GLGSV,3,2,11,73,13,261,,74,20,305,,75,06,355,24,81,04,108,14*60
$GLGSV,3,3,11,82,48,088,22,83,67,357,,84,14,300,*52
$GNGLL,4712.82733,N,01933.15663,E,143301.00,A,A*71
$GNRMC,143302.00,A,4712.82729,N,01933.15652,E,0.152,,280424,,,A*6C
$GNVTG,,T,,M,0.152,N,0.282,K,A*33
$GNGGA,143302.00,4712.82729,N,01933.15652,E,1,11,0.98,147.7,M,38.7,M,,*46
$GNGSA,A,3,08,10,27,21,32,23,02,,,,,,1.96,0.98,1.69*10
$GNGSA,A,3,67,82,68,66,,,,,,,,,1.96,0.98,1.69*18
$GPGSV,3,1,09,02,27,284,19,08,70,272,35,10,64,060,36,14,05,332,20*7D
$GPGSV,3,2,09,16,12,198,15,21,43,288,33,23,27,051,20,27,61,164,37*70
$GPGSV,3,3,09,32,34,126,32*42
$GLGSV,3,1,11,66,15,027,26,67,57,070,30,68,45,161,19,69,03,187,*66
$GLGSV,3,2,11,73,13,261,,74,20,305,,75,06,355,20,81,04,108,09*68
$GLGSV,3,3,11,82,48,088,31,83,67,357,,84,14,300,*50
$GNGLL,4712.82729,N,01933.15652,E,143302.00,A,A*7B
$GNRMC,143303.00,A,4712.82725,N,01933.15648,E,0.062,,280424,,,A*68
$GNVTG,,T,,M,0.062,N,0.115,K,A*3C
$GNGGA,143303.00,4712.82725,N,01933.15648,E,1,11,0.98,147.5,M,38.7,M,,*42
$GNGSA,A,3,08,10,27,21,32,23,02,,,,,,1.96,0.98,1.69*10
$GNGSA,A,3,67,82,68,66,,,,,,,,,1.96,0.98,1.69*18
$GPGSV,3,1,09,02,27,284,19,08,70,272,31,10,64,060,36,14,05,332,18*72
$GPGSV,3,2,09,16,12,198,15,21,43,288,28,23,27,051,30,27,61,164,40*7B
$GPGSV,3,3,09,32,34,126,33*43
$GLGSV,3,1,11,66,15,027,26,67,57,070,30,68,45,161,18,69,03,187,*67
$GLGSV,3,2,11,73,13,261,,74,20,305,,75,06,355,,81,04,108,06*65
$GLGSV,3,3,11,82,48,088,32,83,67,357,,84,14,300,*53
$GNGLL,4712.82725,N,01933.15648,E,143303.00,A,A*7D
$GNRMC,143304.00,A,4712.82720,N,01933.15650,E,0.148,,280424,,,A*6A
$GNVTG,,T,,M,0.148,N,0.274,K,A*31
$GNGGA,143304.00,4712.82720,N,01933.15650,E,1,11,0.98,147.3,M,38.7,M,,*4F
$GNGSA,A,3,08,10,27,21,32,23,02,,,,,,1.96,0.98,1.69*10
$GNGSA,A,3,67,82,68,66,,,,,,,,,1.96,0.98,1.69*18
$GPGSV,3,1,09,02,27,284,18,08,70,272,32,10,64,060,38,14,05,332,15*73
$GPGSV,3,2,09,16,12,198,14,21,43,288,25,23,27,051,32,27,61,164,39*7B
$GPGSV,3,3,09,32,34,126,33*43
$GLGSV,3,1,11,66,15,027,32,67,57,070,37,68,45,161,18,69,03,187,*65
$GLGSV,3,2,11,73,13,261,,74,20,305,,75,06,355,,81,04,108,08*6B
$GLGSV,3,3,11,82,48,088,38,83,67,357,,84,14,300,*59
$GNGLL,4712.82720,N,01933.15650,E,143304.00,A,A*76
$GNRMC,143305.00,A,4712.82720,N,01933.15646,E,0.151,,280424,,,A*64
$GNVTG,,T,,M,0.151,N,0.279,K,A*34
$GNGGA,143305.00,4712.82720,N,01933.15646,E,1,10,1.13,147.1,M,38.7,M,,*48
$GNGSA,A,3,08,10,27,21,32,23,,,,,,,2.23,1.13,1.92*19
$GNGSA,A,3,67,82,68,66,,,,,,,,,2.23,1.13,1.92*13
$GPGSV,3,1,09,02,27,284,,08,70,272,30,10,64,060,37,14,05,332,12*70
$GPGSV,3,2,09,16,12,198,,21,43,288,30,23,27,051,27,27,61,164,35*72
$GPGSV,3,3,09,32,34,126,32*42
$GLGSV,3,1,11,66,15,027,32,67,57,070,38,68,45,161,15,69,03,187,*67
$GLGSV,3,2,11,73,13,261,,74,20,305,,75,06,355,,81,04,108,12*60
$GLGSV,3,3,11,82,48,088,38,83,67,357,,84,14,300,*59
$GNGLL,4712.82720,N,01933.15646,E,143305.00,A,A*70
$GNRMC,143306.00,A,4712.82711,N,01933.15637,E,0.714,,280424,,,A*64
$GNVTG,,T,,M,0.714,N,1.322,K,A*3D
$GNGGA,143306.00,4712.82711,N,01933.15637,E,1,10,1.13,147.5,M,38.7,M,,*4B
$GNGSA,A,3,08,10,27,21,32,23,,,,,,,2.23,1.13,1.93*18
$GNGSA,A,3,67,82,68,66,,,,,,,,,2.23,1.13,1.93*12
$GPGSV,3,1,09,02,27,284,,08,70,272,30,10,64,060,36,14,05,332,09*7B
$GPGSV,3,2,09,16,12,198,,21,43,288,30,23,27,051,28,27,61,164,36*7E
$GPGSV,3,3,09,32,34,126,33*43
$GLGSV,3,1,11,66,15,027,31,67,57,070,38,68,45,161,11,69,03,187,*60
$GLGSV,3,2,11,73,13,261,,74,20,305,,75,06,355,,81,04,108,13*61
$GLGSV,3,3,11,82,48,088,36,83,67,357,,84,14,300,*57
$GNGLL,4712.82711,N,01933.15637,E,143306.00,A,A*77
$GNRMC,143307.00,A,4712.82706,N,01933.15633,E,0.034,,280424,,,A*62
$GNVTG,,T,,M,0.034,N,0.063,K,A*3F
$GNGGA,143307.00,4712.82706,N,01933.15633,E,1,10,1.13,147.5,M,38.7,M,,*48
$GNGSA,A,3,08,10,27,21,32,23,,,,,,,2.23,1.13,1.93*18
$GNGSA,A,3,67,82,68,66,,,,,,,,,2.23,1.13,1.93*12
$GPGSV,3,1,09,02,27,284,16,08,70,272,31,10,64,060,34,14,05,332,08*7E
$GPGSV,3,2,09,16,12,198,,21,43,288,32,23,27,051,28,27,61,164,36*7C
$GPGSV,3,3,09,32,34,126,33*43
$GLGSV,3,1,11,66,15,027,30,67,57,070,33,68,45,161,16,69,03,187,*6D
$GLGSV,3,2,11,73,13,261,,74,20,305,,75,06,355,,81,04,108,13*61
$GLGSV,3,3,11,82,48,088,36,83,67,357,,84,14,300,*57
$GNGLL,4712.82706,N,01933.15633,E,143307.00,A,A*74
$GNRMC,143308.00,A,4712.82703,N,01933.15626,E,0.042,,280424,,,A*6D
$GNVTG,,T,,M,0.042,N,0.078,K,A*34
$GNGGA,143308.00,4712.82703,N,01933.15626,E,1,10,1.13,147.3,M,38.7,M,,*40
$GNGSA,A,3,08,10,27,21,32,23,,,,,,,2.23,1.13,1.93*18
$GNGSA,A,3,67,82,68,66,,,,,,,,,2.23,1.13,1.93*12
$GPGSV,3,1,09,02,27,284,16,08,70,272,31,10,64,060,37,14,05,332,08*7D
$GPGSV,3,2,09,16,11,198,,21,43,288,32,23,27,051,28,27,61,164,36*7F
$GPGSV,3,3,09,32,34,126,33*43
$GLGSV,3,1,11,66,15,027,30,67,57,070,38,68,45,161,18,69,03,187,*68
$GLGSV,3,2,11,73,13,261,,74,20,305,,75,06,355,,81,04,108,12*60
$GLGSV,3,3,11,82,48,088,35,83,67,357,,84,14,300,*54
$GNGLL,4712.82703,N,01933.15626,E,143308.00,A,A*7A
$GNRMC,143309.00,A,4712.82699,N,01933.15615,E,0.044,,280424,,,A*68
$GNVTG,,T,,M,0.044,N,0.081,K,A*34
$GNGGA,143309.00,4712.82699,N,01933.15615,E,1,10,1.13,147.0,M,38.7,M,,*40
$GNGSA,A,3,08,10,27,21,32,23,,,,,,,2.23,1.13,1.93*18
$GNGSA,A,3,67,82,68,66,,,,,,,,,2.23,1.13,1.93*12
$GPGSV,3,1,09,02,27,284,18,08,70,272,29,10,64,060,37,14,05,332,09*7B
$GPGSV,3,2,09,16,11,198,,21,43,288,32,23,27,051,28,27,61,164,36*7F
$GPGSV,3,3,09,32,34,126,32*42
$GLGSV,3,1,11,66,15,027,30,67,57,070,40,68,45,161,18,69,03,187,*67
$GLGSV,3,2,11,73,13,261,,74,20,305,,75,06,355,,81,04,108,10*62
$GLGSV,3,3,11,82,48,088,36,83,67,357,,84,14,300,*57
$GNGLL,4712.82699,N,01933.15615,E,143309.00,A,A*79
$GNRMC,143310.00,A,4712.82690,N,01933.15610,E,0.118,,280424,,,A*64
$GNVTG,,T,,M,0.118,N,0.218,K,A*3E
$GNGGA,143310.00,4712.82690,N,01933.15610,E,1,11,0.98,146.6,M,38.7,M,,*40
$GNGSA,A,3,08,10,27,21,32,23,02,,,,,,1.96,0.98,1.69*10
$GNGSA,A,3,67,82,68,66,,,,,,,,,1.96,0.98,1.69*18
$GPGSV,3,1,09,02,27,284,18,08,70,272,29,10,64,060,38,14,05,332,08*75
$GPGSV,3,2,09,16,11,198,,21,43,288,29,23,27,051,33,27,61,164,39*70
$GPGSV,3,3,09,32,34,126,31*41
$GLGSV,3,1,11,66,15,027,29,67,57,070,39,68,45,161,28,69,03,187,*62
$GLGSV,3,2,11,73,13,261,,74,20,305,,75,06,355,,81,04,108,08*6B
$GLGSV,3,3,11,82,48,088,37,83,67,357,,84,14,300,*56
$GNGLL,4712.82690,N,01933.15610,E,143310.00,A,A*7D
$GNRMC,143311.00,A,4712.82685,N,01933.15609,E,0.082,,280424,,,A*6B
$GNVTG,,T,,M,0.082,N,0.153,K,A*30
$GNGGA,143311.00,4712.82685,N,01933.15609,E,1,11,0.98,146.4,M,38.7,M,,*4F
$GNGSA,A,3,08,10,27,21,32,23,02,,,,,,1.96,0.98,1.69*10
$GNGSA,A,3,67,82,68,66,,,,,,,,,1.96,0.98,1.69*18
$GPGSV,3,1,09,02,27,284,18,08,70,272,29,10,64,060,32,14,05,332,07*70
$GPGSV,3,2,09,16,11,198,,21,43,288,28,23,27,051,33,27,61,164,40*7F
$GPGSV,3,3,09,32,34,126,31*41
$GLGSV,3,1,11,66,15,027,29,67,57,070,36,68,45,161,33,69,03,187,*67
$GLGSV,3,2,11,73,13,261,,74,20,305,,75,06,355,,81,04,108,09*6A
$GLGSV,3,3,11,82,48,088,39,83,67,357,,84,14,300,*58
$GNGLL,4712.82685,N,01933.15609,E,143311.00,A,A*70
$GNRMC,143312.00,A,4712.82684,N,01933.15609,E,0.057,,280424,,,A*61
$GNVTG,,T,,M,0.057,N,0.106,K,A*38
$GNGGA,143312.00,4712.82684,N,01933.15609,E,1,11,0.98,146.2,M,38.7,M,,*4B
$GNGSA,A,3,08,10,27,21,32,23,02,,,,,,1.96,0.98,1.69*10
$GNGSA,A,3,67,82,68,66,,,,,,,,,1.96,0.98,1.69*18
$GPGSV,3,1,09,02,27,284,20,08,70,272,31,10,64,060,32,14,05,332,08*7D
$GPGSV,3,2,09,16,11,198,,21,43,288,28,23,27,051,33,27,61,164,39*71
$GPGSV,3,3,09,32,34,126,33*43
$GLGSV,3,1,11,66,15,027,30,67,57,070,33,68,45,161,33,69,03,187,*6A
$GLGSV,3,2,11,73,13,261,,74,20,305,,75,06,355,,81,04,108,09*6A
$GLGSV,3,3,11,82,48,088,37,83,67,357,,84,14,300,*56
$GNGLL,4712.82684,N,01933.15609,E,143312.00,A,A*72
$GNRMC,143313.00,A,4712.82685,N,01933.15607,E,0.046,,280424,,,A*6F
$GNVTG,,T,,M,0.046,N,0.085,K,A*32
$GNGGA,143313.00,4712.82685,N,01933.15607,E,1,11,0.99,146.2,M,38.7,M,,*44
$GNGSA,A,3,08,10,27,21,32,23,02,,,,,,1.96,0.99,1.69*11
$GNGSA,A,3,67,82,68,66,,,,,,,,,1.96,0.99,1.69*19
$GPGSV,3,1,09,02,27,284,30,08,70,272,33,10,64,060,30,14,05,332,07*73
$GPGSV,3,2,09,16,11,198,,21,43,288,28,23,27,051,33,27,61,164,39*71
$GPGSV,3,3,09,32,34,126,33*43
$GLGSV,3,1,11,66,15,027,31,67,57,070,32,68,45,161,33,69,03,187,*6A
$GLGSV,3,2,11,73,13,261,,74,20,305,,75,06,355,,81,04,108,11*63
$GLGSV,3,3,11,82,48,088,37,83,67,357,,84,14,300,*56
$GNGLL,4712.82685,N,01933.15607,E,143313.00,A,A*7C
$GNRMC,143314.00,A,4712.82689,N,01933.15602,E,0.021,,280424,,,A*60
$GNVTG,,T,,M,0.021,N,0.039,K,A*34
$GNGGA,143314.00,4712.82689,N,01933.15602,E,1,11,0.99,146.2,M,38.7,M,,*4A
$GNGSA,A,3,08,10,27,21,32,23,02,,,,,,1.96,0.99,1.69*11
$GNGSA,A,3,67,82,68,66,,,,,,,,,1.96,0.99,1.69*19
$GPGSV,3,1,09,02,27,284,29,08,70,272,33,10,64,060,31,14,05,332,07*7A
$GPGSV,3,2,09,16,11,198,,21,43,288,31,23,27,051,33,27,61,164,39*79
$GPGSV,3,3,09,32,34,126,32*42
$GLGSV,3,1,11,66,15,027,31,67,57,070,32,68,45,161,34,69,03,187,*6D
$GLGSV,3,2,11,73,13,261,,74,20,305,,75,06,355,,81,04,108,10*62
$GLGSV,3,3,11,82,48,088,38,83,67,357,,84,14,300,*59
$GNGLL,4712.82689,N,01933.15602,E,143314.00,A,A*72
$GNRMC,143315.00,A,4712.82687,N,01933.15603,E,0.065,,280424,,,A*6E
$GNVTG,,T,,M,0.065,N,0.120,K,A*3D
$GNGGA,143315.00,4712.82687,N,01933.15603,E,1,09,1.18,146.2,M,38.7,M,,*45
$GNGSA,A,3,10,27,21,32,23,,,,,,,,2.36,1.18,2.04*12
$GNGSA,A,3,67,82,68,66,,,,,,,,,2.36,1.18,2.04*10
$GPGSV,3,1,10,02,27,284,,08,70,272,,10,64,060,34,14,05,332,10*7A
$GPGSV,3,2,10,16,11,198,,21,43,288,32,23,27,051,33,27,61,164,38*73
$GPGSV,3,3,10,32,34,126,34,49,34,199,28*7D
$GLGSV,3,1,11,66,15,027,26,67,57,070,32,68,45,161,34,69,03,187,*6B
$GLGSV,3,2,11,73,13,261,,74,20,305,,75,06,355,,81,04,108,09*6A
$GLGSV,3,3,11,82,48,088,39,83,67,357,,84,14,300,*58
$GNGLL,4712.82687,N,01933.15603,E,143315.00,A,A*7C
$GNRMC,143316.00,A,4712.82683,N,01933.15604,E,0.120,,280424,,,A*6E
$GNVTG,,T,,M,0.120,N,0.221,K,A*3F
$GNGGA,143316.00,4712.82683,N,01933.15604,E,1,09,1.18,146.0,M,38.7,M,,*47
$GNGSA,A,3,10,27,21,32,23,,,,,,,,2.36,1.18,2.04*12
$GNGSA,A,3,67,82,68,66,,,,,,,,,2.36,1.18,2.04*10
$GPGSV,3,1,12,02,27,284,24,08,70,272,23,10,64,060,35,14,05,332,*7F
$GPGSV,3,2,12,16,11,198,,21,43,288,34,23,27,051,34,27,61,164,36*7E
$GPGSV,3,3,12,32,34,126,33,33,26,224,27,36,35,164,28,49,34,199,27*78
$GLGSV,3,1,11,66,15,027,26,67,57,070,31,68,45,161,33,69,03,187,*6F
$GLGSV,3,2,11,73,13,261,,74,20,305,,75,06,355,,81,04,108,08*6B
$GLGSV,3,3,11,82,48,088,39,83,67,357,,84,14,300,*58
$GNGLL,4712.82683,N,01933.15604,E,143316.00,A,A*7C
$GNRMC,143317.00,A,4712.82629,N,01933.15731,E,4.773,117.71,280424,,,A*73
$GNVTG,117.71,T,,M,4.773,N,8.839,K,A*2F
$GNGGA,143317.00,4712.82629,N,01933.15731,E,1,10,1.26,146.2,M,38.7,M,,*46
$GNGSA,A,3,08,10,27,21,32,23,,,,,,,2.82,1.26,2.52*1B
$GNGSA,A,3,67,82,68,66,,,,,,,,,2.82,1.26,2.52*11
$GPGSV,3,1,12,02,27,284,,08,70,272,33,10,64,060,26,14,05,332,*7A
$GPGSV,3,2,12,16,11,198,,21,43,288,29,23,27,051,33,27,61,164,38*7B
$GPGSV,3,3,12,32,34,126,27,33,26,224,36,36,35,164,35,49,34,199,35*72
$GLGSV,3,1,11,66,15,027,24,67,57,070,26,68,45,161,28,69,03,187,*61
$GLGSV,3,2,11,73,13,261,,74,20,305,,75,06,355,,81,04,108,06*65
$GLGSV,3,3,11,82,48,088,33,83,67,357,,84,14,300,*52
$GNGLL,4712.82629,N,01933.15731,E,143317.00,A,A*7A
$GNRMC,143318.00,A,4712.82578,N,01933.15849,E,2.957,118.68,280424,,,A*72
$GNVTG,118.68,T,,M,2.957,N,5.476,K,A*2C
$GNGGA,143318.00,4712.82578,N,01933.15849,E,1,06,3.14,146.0,M,38.7,M,,*48
$GNGSA,A,3,27,23,,,,,,,,,,,4.47,3.14,3.18*13
$GNGSA,A,3,67,82,68,66,,,,,,,,,4.47,3.14,3.18*12
$GPGSV,3,1,12,02,27,284,,08,70,272,,10,64,060,,14,05,332,*7E
$GPGSV,3,2,12,16,11,198,,21,43,288,,23,27,051,27,27,61,164,36*7B
$GPGSV,3,3,12,32,34,126,,33,26,224,34,36,35,164,34,49,34,199,35*74
$GLGSV,3,1,11,66,15,027,22,67,57,070,26,68,45,161,27,69,03,187,*68
$GLGSV,3,2,11,73,13,261,,74,20,305,,75,06,355,,81,04,108,06*65
$GLGSV,3,3,11,82,48,088,34,83,67,357,,84,14,300,*55
$GNGLL,4712.82578,N,01933.15849,E,143318.00,A,A*72
$GNRMC,143319.00,A,4712.82566,N,01933.15896,E,1.743,116.71,280424,,,A*70
$GNVTG,116.71,T,,M,1.743,N,3.227,K,A*26
$GNGGA,143319.00,4712.82566,N,01933.15896,E,1,06,3.14,145.7,M,38.7,M,,*40
$GNGSA,A,3,27,23,,,,,,,,,,,4.48,3.14,3.18*1C
$GNGSA,A,3,67,82,68,66,,,,,,,,,4.48,3.14,3.18*1D
$GPGSV,3,1,11,02,27,284,,08,70,272,22,10,64,060,21,14,05,332,*7E
$GPGSV,3,2,11,16,11,198,,21,43,288,24,23,27,051,27,27,61,164,32*7A
$GPGSV,3,3,11,32,34,126,,36,35,164,30,49,34,199,29*49
$GLGSV,3,1,11,66,15,027,23,67,57,070,27,68,45,161,32,69,03,187,*6C
$GLGSV,3,2,11,73,13,261,,74,20,305,,75,06,355,,81,04,108,06*65
$GLGSV,3,3,11,82,48,088,35,83,67,357,,84,14,300,*54
$GNGLL,4712.82566,N,01933.15896,E,143319.00,A,A*7E
$GNRMC,143320.00,A,4712.82572,N,01933.15920,E,1.596,,280424,,,A*67
$GNVTG,,T,,M,1.596,N,2.955,K,A*3D
$GNGGA,143320.00,4712.82572,N,01933.15920,E,1,06,3.14,145.0,M,38.7,M,,*44
$GNGSA,A,3,27,23,,,,,,,,,,,4.48,3.14,3.18*1C
$GNGSA,A,3,67,82,68,66,,,,,,,,,4.48,3.14,3.18*1D
$GPGSV,3,1,12,02,27,284,27,08,70,272,,10,64,060,,14,05,332,22*7B
$GPGSV,3,2,12,16,11,198,,21,43,288,,23,27,051,28,27,61,164,32*70
$GPGSV,3,3,12,32,34,126,,33,26,224,32,36,35,164,31,49,34,199,31*73
$GLGSV,3,1,11,66,15,027,25,67,57,070,30,68,45,161,31,69,03,187,*6F
$GLGSV,3,2,11,73,13,261,,74,20,305,,75,06,355,,81,04,108,07*64
$GLGSV,3,3,11,82,48,088,35,83,67,357,,84,14,300,*54
$GNGLL,4712.82572,N,01933.15920,E,143320.00,A,A*7D
$GNRMC,143321.00,A,4712.82596,N,01933.15859,E,0.725,,280424,,,A*68
$GNVTG,,T,,M,0.725,N,1.343,K,A*38
$GNGGA,143321.00,4712.82596,N,01933.15859,E,1,07,2.80,145.5,M,38.7,M,,*48
$GNGSA,A,3,10,27,23,,,,,,,,,,3.65,2.80,2.34*16
$GNGSA,A,3,67,82,68,66,,,,,,,,,3.65,2.80,2.34*16
$GPGSV,3,1,10,02,27,284,,08,70,272,,10,64,060,31,14,05,332,*7E
$GPGSV,3,2,10,16,11,198,24,21,43,288,30,23,27,051,28,27,61,164,33*76
$GPGSV,3,3,10,32,34,126,,49,34,199,33*70
$GLGSV,3,1,11,66,15,027,25,67,57,070,31,68,45,161,27,69,03,187,*69
$GLGSV,3,2,11,73,13,261,,74,20,305,,75,06,355,,81,04,108,07*64
$GLGSV,3,3,11,82,48,088,38,83,67,357,,84,14,300,*59
$GNGLL,4712.82596,N,01933.15859,E,143321.00,A,A*79
$GNRMC,143322.00,A,4712.82580,N,01933.15669,E,4.009,186.78,280424,,,A*72
$GNVTG,186.78,T,,M,4.009,N,7.424,K,A*2B
$GNGGA,143322.00,4712.82580,N,01933.15669,E,1,07,2.80,145.7,M,38.7,M,,*43
$GNGSA,A,3,10,27,23,,,,,,,,,,3.65,2.80,2.34*16
$GNGSA,A,3,67,82,68,66,,,,,,,,,3.65,2.80,2.34*16
$GPGSV,3,1,11,02,27,284,,08,70,272,36,10,64,060,25,14,05,332,35*79
$GPGSV,3,2,11,16,11,198,,21,43,288,25,23,27,051,27,27,61,164,35*7C
$GPGSV,3,3,11,32,34,126,36,36,35,164,35,49,34,199,35*44
$GLGSV,3,1,11,66,15,027,27,67,57,070,33,68,45,161,26,69,03,187,*68
$GLGSV,3,2,11,73,13,261,,74,20,305,,75,06,355,,81,04,108,07*64
$GLGSV,3,3,11,82,48,088,37,83,67,357,,84,14,300,*56
$GNGLL,4712.82580,N,01933.15669,E,143322.00,A,A*70
$GNRMC,143323.00,A,4712.82541,N,01933.15508,E,4.303,234.17,280424,,,A*70
$GNVTG,234.17,T,,M,4.303,N,7.969,K,A*25
$GNGGA,143323.00,4712.82541,N,01933.15508,E,1,06,3.10,145.2,M,38.7,M,,*47
$GNGSA,A,3,10,27,,,,,,,,,,,3.97,3.10,2.48*19
$GNGSA,A,3,67,82,68,66,,,,,,,,,3.97,3.10,2.48*18
$GPGSV,3,1,12,02,27,284,32,08,70,272,,10,64,060,30,14,05,332,*7C
$GPGSV,3,2,12,16,11,198,,21,43,288,,23,27,051,,27,61,164,34*7C
$GPGSV,3,3,12,32,34,126,34,33,26,224,34,36,35,164,33,49,34,199,34*75
$GLGSV,3,1,11,66,15,027,27,67,57,070,32,68,45,161,25,69,03,187,*6A
$GLGSV,3,2,11,73,13,261,,74,20,305,,75,06,355,,81,04,108,07*64
$GLGSV,3,3,11,82,48,088,37,83,67,357,,84,14,300,*56
$GNGLL,4712.82541,N,01933.15508,E,143323.00,A,A*78
$GNRMC,143324.00,A,4712.82522,N,01933.15409,E,3.215,242.03,280424,,,A*77
$GNVTG,242.03,T,,M,3.215,N,5.954,K,A*2C
$GNGGA,143324.00,4712.82522,N,01933.15409,E,1,06,3.75,145.0,M,38.7,M,,*44
$GNGSA,A,3,10,27,,,,,,,,,,,4.54,3.75,2.56*1D
$GNGSA,A,3,67,82,68,66,,,,,,,,,4.54,3.75,2.56*1C
$GPGSV,3,1,12,02,27,284,32,08,70,272,,10,64,060,31,14,05,332,*7D
$GPGSV,3,2,12,16,11,198,,21,43,288,31,23,27,051,35,27,61,164,23*7E
$GPGSV,3,3,12,32,35,125,31,33,26,224,36,36,35,164,35,49,34,199,34*76
$GLGSV,3,1,11,66,15,027,27,67,57,070,33,68,45,161,24,69,03,187,*6A
$GLGSV,3,2,11,73,13,261,,74,20,305,,75,06,355,,81,04,108,07*64
$GLGSV,3,3,11,82,48,088,37,83,67,357,,84,14,300,*56
$GNGLL,4712.82522,N,01933.15409,E,143324.00,A,A*7A
$GNRMC,143325.00,A,4712.82514,N,01933.15367,E,1.881,246.09,280424,,,A*77
$GNVTG,246.09,T,,M,1.881,N,3.483,K,A*26
$GNGGA,143325.00,4712.82514,N,01933.15367,E,1,05,3.75,144.9,M,38.7,M,,*44
$GNGSA,A,3,10,,,,,,,,,,,,4.54,3.75,2.56*18
$GNGSA,A,3,67,82,68,66,,,,,,,,,4.54,3.75,2.56*1C
$GPGSV,3,1,12,02,27,284,37,08,70,272,26,10,64,060,32,14,05,332,*7F
$GPGSV,3,2,12,16,11,198,33,21,43,288,,23,27,051,33,27,61,164,37*7F
$GPGSV,3,3,12,32,35,125,33,33,26,224,33,36,35,164,34,49,34,199,34*70
$GLGSV,3,1,11,66,15,027,27,67,57,070,34,68,45,161,25,69,03,187,*6C
$GLGSV,3,2,11,73,13,261,,74,20,305,,75,06,355,,81,04,108,07*64
$GLGSV,3,3,11,82,48,088,36,83,67,357,,84,14,300,*57
$GNGLL,4712.82514,N,01933.15367,E,143325.00,A,A*71
$GNRMC,143326.00,A,4712.82536,N,01933.15420,E,0.302,,280424,,,A*66
$GNVTG,,T,,M,0.302,N,0.559,K,A*35
$GNGGA,143326.00,4712.82536,N,01933.15420,E,1,06,3.10,145.1,M,38.7,M,,*4A
$GNGSA,A,3,10,27,,,,,,,,,,,3.97,3.10,2.48*19
$GNGSA,A,3,67,82,68,66,,,,,,,,,3.97,3.10,2.48*18
$GPGSV,3,1,12,02,27,284,19,08,70,272,25,10,64,060,34,14,05,332,*76
$GPGSV,3,2,12,16,11,198,,21,43,288,25,23,27,051,,27,61,164,33*7C
$GPGSV,3,3,12,32,35,125,25,33,26,224,27,36,35,164,28,49,34,199,27*7D
$GLGSV,3,1,11,66,15,027,27,67,57,070,31,68,45,161,32,69,03,187,*6F
$GLGSV,3,2,11,73,13,261,,74,20,305,,75,06,355,,81,04,108,07*64
$GLGSV,3,3,11,82,48,088,36,83,67,357,,84,14,300,*57
$GNGLL,4712.82536,N,01933.15420,E,143326.00,A,A*76
$GNRMC,143327.00,A,4712.82550,N,01933.15440,E,0.075,,280424,,,A*62
$GNVTG,,T,,M,0.075,N,0.138,K,A*35
$GNGGA,143327.00,4712.82550,N,01933.15440,E,1,08,1.65,145.0,M,38.7,M,,*42
$GNGSA,A,3,08,10,27,23,,,,,,,,,2.76,1.65,2.21*11
$GNGSA,A,3,67,82,68,66,,,,,,,,,2.76,1.65,2.21*19
$GPGSV,3,1,09,02,27,284,19,08,70,272,27,10,64,060,34,14,05,332,*7E
$GPGSV,3,2,09,16,11,198,,21,43,288,21,23,27,051,29,27,61,164,34*7E
$GPGSV,3,3,09,32,35,125,22*41
$GLGSV,3,1,11,66,15,027,27,67,57,070,33,68,45,161,32,69,03,187,*6D
$GLGSV,3,2,11,73,13,261,,74,20,305,,75,06,355,,81,04,108,*63
$GLGSV,3,3,11,82,48,088,36,83,67,357,,84,14,300,*57
$GNGLL,4712.82550,N,01933.15440,E,143327.00,A,A*71
$GNRMC,143328.00,A,4712.82568,N,01933.15435,E,0.050,,280424,,,A*63
$GNVTG,,T,,M,0.050,N,0.092,K,A*33
$GNGGA,143328.00,4712.82568,N,01933.15435,E,1,08,1.65,145.2,M,38.7,M,,*46
$GNGSA,A,3,08,10,27,23,,,,,,,,,2.76,1.65,2.21*11
$GNGSA,A,3,67,82,68,66,,,,,,,,,2.76,1.65,2.21*19
$GPGSV,3,1,09,02,27,284,18,08,70,272,29,10,64,060,35,14,05,332,*70
$GPGSV,3,2,09,16,11,198,,21,43,288,17,23,27,051,28,27,61,164,34*7A
$GPGSV,3,3,09,32,35,125,18*48
$GLGSV,3,1,11,66,15,027,27,67,57,070,35,68,45,161,32,69,03,187,*6B
$GLGSV,3,2,11,73,13,261,,74,20,305,,75,06,355,,81,04,108,*63
$GLGSV,3,3,11,82,48,088,37,83,67,357,,84,14,300,*56
$GNGLL,4712.82568,N,01933.15435,E,143328.00,A,A*77
$GNRMC,143329.00,A,4712.82588,N,01933.15426,E,0.046,,280424,,,A*69
$GNVTG,,T,,M,0.046,N,0.085,K,A*32
$GNGGA,143329.00,4712.82588,N,01933.15426,E,1,08,1.65,145.2,M,38.7,M,,*4B
$GNGSA,A,3,08,10,27,23,,,,,,,,,2.76,1.65,2.21*11
$GNGSA,A,3,67,82,68,66,,,,,,,,,2.76,1.65,2.21*19
$GPGSV,3,1,09,02,27,284,18,08,70,272,30,10,64,060,35,14,05,332,*78
$GPGSV,3,2,09,16,11,198,,21,43,288,13,23,27,051,29,27,61,164,34*7F
$GPGSV,3,3,09,32,35,125,15*45
$GLGSV,3,1,11,66,15,027,27,67,57,070,35,68,45,161,33,69,03,187,*6A
$GLGSV,3,2,11,73,13,261,,74,20,305,,75,06,355,,81,04,108,*63
$GLGSV,3,3,11,82,48,088,38,83,67,357,,84,14,300,*59
$GNGLL,4712.82588,N,01933.15426,E,143329.00,A,A*7A
$GNRMC,143330.00,A,4712.82605,N,01933.15434,E,0.058,,280424,,,A*6B
$GNVTG,,T,,M,0.058,N,0.108,K,A*39
$GNGGA,143330.00,4712.82605,N,01933.15434,E,1,10,1.65,145.1,M,38.7,M,,*4C
$GNGSA,A,3,08,10,27,32,23,02,,,,,,,2.76,1.65,2.21*12
$GNGSA,A,3,67,82,68,66,,,,,,,,,2.76,1.65,2.21*19
$GPGSV,3,1,09,02,27,284,18,08,70,272,31,10,64,060,36,14,05,332,*7A
$GPGSV,3,2,09,16,11,198,,21,43,288,11,23,27,051,29,27,61,164,35*7C
$GPGSV,3,3,09,32,35,125,14*44
$GLGSV,3,1,11,66,15,027,27,67,57,070,35,68,45,161,33,69,03,187,*6A
$GLGSV,3,2,11,73,13,261,,74,20,305,,75,06,355,,81,04,108,*63
$GLGSV,3,3,11,82,48,088,38,83,67,357,,84,14,300,*59
$GNGLL,4712.82605,N,01933.15434,E,143330.00,A,A*77
$GNRMC,143331.00,A,4712.82624,N,01933.15440,E,0.038,,280424,,,A*6C
$GNVTG,,T,,M,0.038,N,0.070,K,A*31
$GNGGA,143331.00,4712.82624,N,01933.15440,E,1,10,1.50,145.2,M,38.7,M,,*48
$GNGSA,A,3,08,10,27,32,23,02,,,,,,,2.55,1.50,2.06*10
$GNGSA,A,3,67,82,68,66,,,,,,,,,2.55,1.50,2.06*1B
$GPGSV,3,1,09,02,27,284,18,08,70,272,31,10,64,060,36,14,05,332,*7A
$GPGSV,3,2,09,16,11,198,,21,43,288,08,23,27,051,31,27,61,164,35*7D
$GPGSV,3,3,09,32,35,125,13*43
$GLGSV,3,1,11,66,15,027,27,67,57,070,35,68,45,161,34,69,03,187,*6D
$GLGSV,3,2,11,73,13,261,,74,20,305,,75,06,355,,81,04,108,*63
$GLGSV,3,3,11,82,48,088,38,83,67,357,,84,14,300,*59
$GNGLL,4712.82624,N,01933.15440,E,143331.00,A,A*76
$GNRMC,143332.00,A,4712.82636,N,01933.15441,E,0.122,,280424,,,A*67
$GNVTG,,T,,M,0.122,N,0.226,K,A*3A
$GNGGA,143332.00,4712.82636,N,01933.15441,E,1,10,1.05,145.3,M,38.7,M,,*48
$GNGSA,A,3,08,10,27,32,23,02,,,,,,,2.00,1.05,1.70*12
$GNGSA,A,3,67,82,68,66,,,,,,,,,2.00,1.05,1.70*19
$GPGSV,3,1,09,02,27,284,17,08,70,272,29,10,64,060,35,14,05,332,*7F
$GPGSV,3,2,09,16,11,198,,21,43,288,07,23,27,051,30,27,61,164,34*72
$GPGSV,3,3,09,32,35,125,11*41
$GLGSV,3,1,11,66,15,027,28,67,57,070,35,68,45,161,34,69,03,187,*62
$GLGSV,3,2,11,73,13,261,,74,20,305,,75,06,355,,81,04,108,*63
$GLGSV,3,3,11,82,48,088,38,83,67,357,,84,14,300,*59
$GNGLL,4712.82636,N,01933.15441,E,143332.00,A,A*77
$GNRMC,143333.00,A,4712.82654,N,01933.15441,E,0.058,,280424,,,A*6E
$GNVTG,,T,,M,0.058,N,0.108,K,A*39
$GNGGA,143333.00,4712.82654,N,01933.15441,E,1,10,1.05,145.4,M,38.7,M,,*4A
$GNGSA,A,3,08,10,27,32,23,02,,,,,,,2.00,1.05,1.70*12
$GNGSA,A,3,67,82,68,66,,,,,,,,,2.00,1.05,1.70*19
$GPGSV,3,1,09,02,27,284,18,08,70,272,28,10,64,060,34,14,05,332,*70
$GPGSV,3,2,09,16,11,198,,21,43,288,07,23,27,051,31,27,61,164,34*73
$GPGSV,3,3,09,32,35,125,12*42
$GLGSV,3,1,11,66,15,027,29,67,57,070,32,68,45,161,35,69,03,187,*65
$GLGSV,3,2,11,73,13,261,,74,20,305,,75,06,355,,81,04,108,*63
$GLGSV,3,3,11,82,48,088,38,83,67,357,,84,14,300,*59
$GNGLL,4712.82654,N,01933.15441,E,143333.00,A,A*72
$GNRMC,143334.00,A,4712.82663,N,01933.15443,E,0.239,,280424,,,A*6A
$GNVTG,,T,,M,0.239,N,0.442,K,A*37
$GNGGA,143334.00,4712.82663,N,01933.15443,E,1,10,1.05,145.5,M,38.7,M,,*4A
$GNGSA,A,3,08,10,27,32,23,02,,,,,,,2.00,1.05,1.70*12
$GNGSA,A,3,67,82,68,66,,,,,,,,,2.00,1.05,1.70*19
$GPGSV,3,1,09,02,27,284,19,08,70,272,28,10,64,060,34,14,05,332,*71
$GPGSV,3,2,09,16,11,198,,21,43,288,08,23,27,051,32,27,61,164,35*7E
$GPGSV,3,3,09,32,35,125,17*47
$GLGSV,3,1,11,66,15,027,29,67,57,070,35,68,45,161,35,69,03,187,*62
$GLGSV,3,2,11,73,13,261,,74,20,305,24,75,06,355,,81,04,108,*65
$GLGSV,3,3,11,82,48,088,38,83,67,357,,84,14,300,*59
$GNGLL,4712.82663,N,01933.15443,E,143334.00,A,A*73
$GNRMC,143335.00,A,4712.82674,N,01933.15446,E,0.084,,280424,,,A*6C
$GNVTG,,T,,M,0.084,N,0.155,K,A*30
$GNGGA,143335.00,4712.82674,N,01933.15446,E,1,10,1.05,145.4,M,38.7,M,,*49
$GNGSA,A,3,08,10,27,32,23,02,,,,,,,2.00,1.05,1.70*12
$GNGSA,A,3,67,82,68,66,,,,,,,,,2.00,1.05,1.70*19
$GPGSV,3,1,09,02,27,284,18,08,70,272,27,10,64,060,34,14,05,332,*7F
$GPGSV,3,2,09,16,11,198,,21,43,288,09,23,27,051,32,27,61,164,34*7E
$GPGSV,3,3,09,32,35,125,18*48
$GLGSV,3,1,11,66,15,027,34,67,57,070,37,68,45,161,36,69,03,187,*6F
$GLGSV,3,2,11,73,13,261,,74,20,305,27,75,06,355,,81,04,108,*66
$GLGSV,3,3,11,82,48,088,41,83,67,357,,84,14,300,*57
$GNGLL,4712.82674,N,01933.15446,E,143335.00,A,A*71
